"ride_id","rideable_type","started_at","ended_at","start_station_name","start_station_id","end_station_name","end_station_id","start_lat","start_lng","end_lat","end_lng","member_casual"
"3E710496D7816DA9","electric_bike","2022-12-17 00:50:00","2022-12-17 00:51:52","Winthrop Ave & Lawrence Ave","TA1308000021","Winthrop Ave & Lawrence Ave","TA1308000021",41.9688771666667,-87.657731,41.968812,-87.657659,"casual"
"FEDC7057AD1735A2","classic_bike","2022-12-01 04:25:20","2022-12-01 04:50:47","Fairbanks Ct & Grand Ave","TA1305000003","Paulina St & Flournoy St","KA1504000104",41.8918473721099,-87.6205801963806,41.8730610878979,-87.6691348850727,"member"
"3FE3A795B92E5D56","electric_bike","2022-12-12 18:27:14","2022-12-12 19:05:07","Calumet Ave & 18th St","13102","","",41.857748508,-87.619485497,41.89,-87.64,"casual"
"A7CFB90CBC171A75","classic_bike","2022-12-01 17:04:56","2022-12-01 17:10:31","Sangamon St & Washington Blvd","13409","Clinton St & Washington Blvd","WL-012",41.883165,-87.6511,41.88338,-87.64117,"member"
"ECA98F33EB9D4DB2","classic_bike","2022-12-30 08:45:40","2022-12-30 08:53:47","Morgan St & Lake St*","chargingstx4","Orleans St & Hubbard St","636",41.8854917062691,-87.6522892713547,41.890028,-87.636618,"member"
"EBA4A130236EDA5D","classic_bike","2022-12-13 09:48:46","2022-12-13 10:00:24","Green St & Madison Ave*","chargingstx07","Michigan Ave & Lake St","TA1305000011",41.8818273765714,-87.6488319039345,41.886024,-87.624117,"member"
"524C467DD384FB08","electric_bike","2022-12-14 15:12:38","2022-12-14 15:16:34","Kimbark Ave & 53rd St","TA1309000037","","",41.799532294,-87.594626188,41.8,-87.6,"member"
"CB9E573E2FD1DED3","electric_bike","2022-12-19 12:45:11","2022-12-19 12:49:56","LaSalle St & Washington St","13006","Clinton St & Lake St","13021",41.882635832,-87.632477641,41.885637,-87.641823,"member"
"307635EC3EC7DD0C","electric_bike","2022-12-20 15:29:53","2022-12-20 15:47:56","Daley Center Plaza","TA1306000010","","",41.885361075,-87.63212049,41.89,-87.62,"casual"
"1B2852B1C22DA63B","electric_bike","2022-12-02 19:31:05","2022-12-02 19:36:44","Michigan Ave & Washington St","13001","Wabash Ave & 9th St","TA1309000010",41.883964,-87.6243213333333,41.870769,-87.625734,"casual"
"4948176110577A8B","classic_bike","2022-12-14 07:16:11","2022-12-14 07:23:08","Wood St & Chicago Ave","637","Ashland Ave & Blackhawk St","13224",41.895634,-87.672069,41.907066,-87.667252,"member"
"942617C5BBF5DE13","classic_bike","2022-12-19 13:52:56","2022-12-19 13:57:08","Larrabee St & Division St","KA1504000079","Wells St & Evergreen Ave","TA1308000049",41.90348607004,-87.6433534936,41.906724,-87.63483,"member"
"C70C15E8D1227F96","electric_bike","2022-12-28 18:09:31","2022-12-28 18:16:49","Sheffield Ave & Kingsbury St","13154","Southport Ave & Wrightwood Ave","TA1307000113",41.910601974,-87.653375387,41.928773,-87.663913,"member"
"53099CC9B13041CB","electric_bike","2022-12-21 21:04:44","2022-12-21 21:15:09","","","Glenwood Ave & Morse Ave","KA1504000175",42,-87.7,42.00797192287,-87.6655023944,"member"
"F76A092ADE2F225C","classic_bike","2022-12-04 15:21:38","2022-12-04 15:32:39","Oakley Ave & Irving Park Rd","KA1504000158","Clark St & Grace St","TA1307000127",41.95434085219,-87.6860796243,41.95078,-87.659172,"member"
"1332F50A9DD3864C","electric_bike","2022-12-03 00:53:20","2022-12-03 00:57:02","Lincoln Ave & Belle Plaine Ave","TA1309000026","","",41.9560355,-87.6802845,41.95,-87.69,"member"
"F1E5ACCA50576704","electric_bike","2022-12-03 13:07:44","2022-12-03 13:20:52","","","","",41.92,-87.68,41.92,-87.64,"member"
"43672605639DD25C","electric_bike","2022-12-15 10:09:09","2022-12-15 10:11:38","","","DuSable Lake Shore Dr & North Blvd","LF-005",41.91,-87.63,41.911722,-87.626804,"member"
"3B2EE3A7E1B789C6","electric_bike","2022-12-15 07:49:15","2022-12-15 07:54:55","Western Ave & 21st St","13091","Damen Ave & Cullerton St","13089",41.854041457,-87.685821056,41.8549665187539,-87.6756995916366,"member"
"73201D10D6D748BA","classic_bike","2022-12-21 14:24:47","2022-12-21 14:29:54","Morgan St & Polk St","TA1307000130","May St & Taylor St","13160",41.871737,-87.65103,41.8694821,-87.6554864,"member"
"6BB61F26CA842721","classic_bike","2022-12-19 23:31:31","2022-12-19 23:39:34","Ellis Ave & 58th St","TA1309000011","Lake Park Ave & 56th St","TA1309000063",41.788746,-87.601334,41.793242,-87.587782,"member"
"C020522C410C7318","electric_bike","2022-12-09 23:00:06","2022-12-09 23:02:45","New St & Illinois St","TA1306000013","Wabash Ave & Grand Ave","TA1307000117",41.890692592,-87.618667006,41.891466,-87.626761,"casual"
"105C48D470993752","electric_bike","2022-12-16 13:58:04","2022-12-16 14:04:34","Stetson Ave & South Water St","TA1308000029","Clinton St & Washington Blvd","WL-012",41.886624694,-87.622414589,41.88338,-87.64117,"casual"
"41C6F0B0C22E2C18","electric_bike","2022-12-06 16:14:24","2022-12-06 16:35:39","LaSalle St & Washington St","13006","Burling St & Diversey Pkwy","TA1309000036",41.882503152,-87.632739305,41.93314,-87.64776,"member"
"4A04A1341D6FB50A","electric_bike","2022-12-19 15:50:53","2022-12-19 16:05:57","Clark St & Randolph St","TA1305000030","Hermitage Ave & Polk St","13080",41.884878516,-87.632235527,41.871514,-87.669886,"member"
"AD7DA5F6ED3181C8","electric_bike","2022-12-07 08:24:33","2022-12-07 08:29:59","","","","",41.99,-87.7,42,-87.68,"member"
"C9005E05E89EAA9F","classic_bike","2022-12-02 14:17:34","2022-12-02 14:24:31","Clark St & Armitage Ave","13146","Halsted St & Willow St","TA1307000166",41.918306,-87.636282,41.913865,-87.648755,"member"
"35B9398669386282","classic_bike","2022-12-15 08:44:31","2022-12-15 09:03:13","Western Ave & Roscoe St","15634","Southport Ave & Wrightwood Ave","TA1307000113",41.943034,-87.687288,41.928773,-87.663913,"member"
"033A589D19AE2104","classic_bike","2022-12-31 10:55:05","2022-12-31 11:06:55","Southport Ave & Belmont Ave","13229","Wood St & Webster Ave","TA1307000138",41.9394777504051,-87.6637476682663,41.9210567299276,-87.6727974414825,"member"
"B9AED85384CA3286","classic_bike","2022-12-06 20:36:57","2022-12-06 20:48:45","Leavitt St & Lawrence Ave","TA1309000015","Lincoln Ave & Addison St","TA1309000050",41.968885,-87.684001,41.946176,-87.673308,"member"
"05C8285FF4F66292","classic_bike","2022-12-30 18:31:08","2022-12-30 18:34:48","Halsted St & Roscoe St","TA1309000025","Wilton Ave & Belmont Ave","TA1307000134",41.94367,-87.64895,41.9402319181086,-87.6529437303543,"casual"
"CF6DB0BED863B2D9","electric_bike","2022-12-04 08:59:30","2022-12-04 09:03:55","Wells St & Elm St","KA1504000135","Halsted St & Clybourn Ave","331",41.90334332,-87.634686112,41.909668,-87.648128,"member"
"D406382C8882AB4E","classic_bike","2022-12-15 18:43:13","2022-12-15 18:50:18","Wacker Dr & Washington St","KA1503000072","Wabash Ave & Adams St","KA1503000015",41.8831433643902,-87.6372420787811,41.87947235235,-87.6256886059,"member"
"61F83D75AFA87BAC","electric_bike","2022-12-02 07:49:18","2022-12-02 07:59:43","New St & Illinois St","TA1306000013","Elizabeth St & Fulton St","13197",41.8906495,-87.6180068333333,41.8867107731844,-87.6596572995186,"member"
"AB36D82A66598CB6","classic_bike","2022-12-02 18:33:11","2022-12-02 18:45:11","Western Ave & Winnebago Ave","13068","Central Park Ave & Bloomingdale Ave","18017",41.91552,-87.687022,41.914166,-87.716755,"member"
"D9F0F8A437D59783","classic_bike","2022-12-07 08:56:41","2022-12-07 09:01:29","Wells St & Walton St","TA1306000011","Larrabee St & Kingsbury St","TA1306000009",41.89993001,-87.63443007,41.897764,-87.642884,"member"
"A2C91A4273388E02","electric_bike","2022-12-19 17:28:32","2022-12-19 18:03:18","Wabash Ave & Grand Ave","TA1307000117","Wabash Ave & 9th St","TA1309000010",41.8911766666667,-87.6266463333333,41.870769,-87.625734,"casual"
"24E5910BA27B55D7","electric_bike","2022-12-20 17:25:03","2022-12-20 17:29:07","Ada St & Washington Blvd","13353","","",41.8828125,-87.661158562,41.89,-87.65,"casual"
"53978C64764F9C37","electric_bike","2022-12-02 08:41:47","2022-12-02 08:45:36","Ashland Ave & Augusta Blvd","13248","Damen Ave & Division St","13136",41.8995693333333,-87.668471,41.903266,-87.678435,"member"
"9DAC1786AC49FC83","electric_bike","2022-12-06 15:30:25","2022-12-06 15:45:12","Lockwood Ave & Wrightwood Ave","312","","",41.93,-87.76,41.94,-87.73,"member"
"DA7461AE37CC3CBA","classic_bike","2022-12-21 18:12:52","2022-12-21 18:16:48","Stetson Ave & South Water St","TA1308000029","State St & Randolph St","TA1305000029",41.886835,-87.62232,41.8846210725794,-87.6278342306614,"member"
"8E0A377C7D6A7678","classic_bike","2022-12-31 17:49:11","2022-12-31 18:11:52","Clark St & Berwyn Ave","KA1504000146","Clark St & Lunt Ave","KA1504000162",41.9780306224866,-87.668564915657,42.0090111805808,-87.6741117238998,"member"
"E29914A988643481","classic_bike","2022-12-14 09:15:32","2022-12-14 09:25:09","Clark St & Lake St","KA1503000012","Larrabee St & Kingsbury St","TA1306000009",41.88602082773,-87.6308760584,41.897764,-87.642884,"member"
"E0DC7864C118DCA8","electric_bike","2022-12-07 03:56:41","2022-12-07 04:11:54","","","Ashland Ave & Division St","13061",41.93,-87.72,41.90345,-87.667747,"member"
"0702E91F27F319CC","classic_bike","2022-12-31 08:33:39","2022-12-31 08:37:57","Clark St & Schiller St","TA1309000024","Clark St & Elm St","TA1307000039",41.907993,-87.631501,41.902973,-87.63128,"member"
"945A951CCCB1ABD9","classic_bike","2022-12-30 12:54:18","2022-12-30 13:10:29","Broadway & Cornelia Ave","13278","Greenview Ave & Fullerton Ave","TA1307000001",41.945529,-87.646439,41.92533,-87.6658,"member"
"3B7490E028C3CE2C","classic_bike","2022-12-01 18:43:33","2022-12-01 18:46:15","Ashland Ave & Lake St","13073","Ashland Ave & Grand Ave","13434",41.88592,-87.66717,41.891072,-87.666611,"member"
"AAB2A55F98F5F0A1","electric_bike","2022-12-29 12:57:37","2022-12-29 13:06:46","Wells St & Elm St","KA1504000135","","",41.9028251666667,-87.6345803333333,41.91,-87.65,"member"
"E18A94B8B3A7D2F9","electric_bike","2022-12-16 18:27:34","2022-12-16 18:29:51","","","","",41.88,-87.65,41.88,-87.65,"member"
"DED7456F31288FE6","electric_bike","2022-12-29 12:32:36","2022-12-29 12:37:36","Malcolm X College","631","Peoria St & Jackson Blvd","13158",41.877620101,-87.673929095,41.8776415962753,-87.6496177911758,"casual"
"2B28EB9E07AF57AF","electric_bike","2022-12-12 07:53:55","2022-12-12 07:59:23","Clinton St & Washington Blvd","WL-012","Larrabee St & Kingsbury St","TA1306000009",41.8832898333333,-87.6414566666667,41.897764,-87.642884,"member"
"BFE92CC10870423A","electric_bike","2022-12-03 14:30:07","2022-12-03 14:35:07","Carpenter St & Huron St","13196","Larrabee St & Division St","KA1504000079",41.894604325,-87.653466105,41.90348607004,-87.6433534936,"casual"
"600E5C0AE98240E8","electric_bike","2022-12-14 08:18:49","2022-12-14 08:29:00","Michigan Ave & 8th St","623","McCormick Place","TA1305000004",41.8724548333333,-87.6239538333333,41.8513751729,-87.6188346489,"casual"
"14DE73EEC84ED425","electric_bike","2022-12-08 10:27:54","2022-12-08 10:42:12","","","Columbus Dr & Randolph St","13263",41.91,-87.65,41.884728,-87.619521,"member"
"2C0342809E3E362D","electric_bike","2022-12-10 12:40:36","2022-12-10 12:48:43","Pine Grove Ave & Irving Park Rd","TA1308000022","","",41.954339266,-87.648062587,41.95,-87.67,"member"
"39CD245C3BC2F589","classic_bike","2022-12-01 18:21:07","2022-12-01 18:27:41","Wells St & Hubbard St","TA1307000151","Clinton St & Madison St","TA1305000032",41.889906,-87.634266,41.8827519656856,-87.641190290451,"member"
"6768388D7826C1EA","electric_bike","2022-12-01 11:16:20","2022-12-01 11:22:57","Sedgwick St & Huron St","TA1307000062","Desplaines St & Randolph St","15535",41.8946703333333,-87.6383445,41.88461618962,-87.6445705849,"member"
"69A7F039A8674BDD","electric_bike","2022-12-07 14:14:13","2022-12-07 14:19:25","Halsted St & Polk St","TA1307000121","Racine Ave & Congress Pkwy","TA1306000025",41.871809244,-87.646696568,41.87464,-87.65703,"casual"
"6743DA1B33C1B9F9","classic_bike","2022-12-15 13:26:33","2022-12-15 13:42:17","Ogden Ave & Race Ave","13194","St. Clair St & Erie St","13016",41.891795,-87.658751,41.8943451374243,-87.6227983832359,"member"
"5A83114C5C1152AE","electric_bike","2022-12-19 18:26:04","2022-12-19 18:34:23","Leavitt St & Chicago Ave","18058","","",41.895367026,-87.681955338,41.9,-87.65,"casual"
"0A7BA756A0520449","electric_bike","2022-12-04 12:36:42","2022-12-04 12:59:07","","","DuSable Lake Shore Dr & Diversey Pkwy","TA1309000039",41.96,-87.65,41.932588,-87.636427,"casual"
"AB794772E9EFC7A1","electric_bike","2022-12-05 16:10:35","2022-12-05 16:16:33","Damen Ave & Grand Ave","TA1308000006","Damen Ave & Pierce Ave","TA1305000041",41.892552972,-87.67682302,41.9093960065,-87.6776919292,"casual"
"A14B5943483C0966","classic_bike","2022-12-08 06:57:07","2022-12-08 06:59:25","Kingsbury St & Erie St","13265","Kingsbury St & Kinzie St","KA1503000043",41.8938080562436,-87.6416972279549,41.88917683258,-87.6385057718,"member"
"38FD7D7512C6D244","electric_bike","2022-12-11 13:58:23","2022-12-11 14:12:44","Orleans St & Elm St","TA1306000006","","",41.9029546666667,-87.6377448333333,41.94,-87.65,"member"
"CA9925C92F2F7DDA","classic_bike","2022-12-09 06:20:47","2022-12-09 06:40:14","Canal St & Monroe St","13056","St. Clair St & Erie St","13016",41.88169,-87.63953,41.8943451374243,-87.6227983832359,"member"
"A13B9A36E2F008EE","classic_bike","2022-12-17 23:20:53","2022-12-17 23:26:45","Kingsbury St & Erie St","13265","Ogden Ave & Chicago Ave","TA1305000020",41.8938080562436,-87.6416972279549,41.896362458,-87.6540612729,"member"
"271D2DC2C7EEF43C","electric_bike","2022-12-17 09:07:11","2022-12-17 09:23:57","Lincoln Ave & Diversey Pkwy","TA1307000064","Fairbanks St & Superior St","18003",41.932240963,-87.658639669,41.895748,-87.620104,"member"
"E1616B70A967D447","electric_bike","2022-12-07 12:56:27","2022-12-07 13:03:08","University Ave & 57th St","KA1503000071","Shore Dr & 55th St","TA1308000009",41.7914906666667,-87.6000596666667,41.795212,-87.580715,"member"
"7474DCCED013B6BE","electric_bike","2022-12-12 14:15:49","2022-12-12 14:34:44","Dayton St & North Ave","13058","Dayton St & North Ave","13058",41.910587907,-87.649466276,41.9105780349,-87.6494219288,"member"
"1CE1E6E69448791A","electric_bike","2022-12-18 08:27:34","2022-12-18 08:38:30","Sheffield Ave & Waveland Ave","TA1307000126","Seeley Ave & Roscoe St","13144",41.949170709,-87.654490232,41.943403,-87.679618,"member"
"586C28745FFFC668","classic_bike","2022-12-03 09:24:35","2022-12-03 09:27:37","Lincoln Ave & Roscoe St*","chargingstx5","Lincoln Ave & Belmont Ave (Temp)","TA1309000042",41.9433502470174,-87.6706677675247,41.9395316198226,-87.6711143553257,"member"
"82AF47FD3301FCDC","electric_bike","2022-12-06 11:25:10","2022-12-06 11:29:58","Clinton St & Lake St","13021","","",41.885662556,-87.641807795,41.88,-87.65,"member"
"AFA0500BAC7971A3","classic_bike","2022-12-19 19:16:43","2022-12-19 19:23:40","Clark St & Chicago Ave","13303","Fairbanks Ct & Grand Ave","TA1305000003",41.89675,-87.63089,41.8918473721099,-87.6205801963806,"casual"
"D35C96343179E574","electric_bike","2022-12-02 20:35:21","2022-12-02 20:37:24","Shore Dr & 55th St","TA1308000009","","",41.795189381,-87.580865145,41.8,-87.58,"member"
"149D1C25E6CC3CEC","classic_bike","2022-12-14 06:46:49","2022-12-14 06:50:20","Kingsbury St & Kinzie St","KA1503000043","Clinton St & Washington Blvd","WL-012",41.88917683258,-87.6385057718,41.88338,-87.64117,"member"
"73CFDAFF62A01C7C","electric_bike","2022-12-05 20:45:10","2022-12-05 20:48:35","","","Bissell St & Armitage Ave*","chargingstx1",41.92,-87.66,41.9182955629354,-87.6521833240986,"member"
"CD18CD05FD338C5A","electric_bike","2022-12-31 06:40:54","2022-12-31 06:47:18","","","Wabash Ave & Roosevelt Rd","TA1305000002",41.87,-87.65,41.867227,-87.625961,"member"
"4F1794A6855BDDEE","classic_bike","2022-12-08 16:04:09","2022-12-08 16:12:35","Western Ave & Winnebago Ave","13068","Western Ave & Walton St","KA1504000103",41.91552,-87.687022,41.89841768945,-87.6865960164,"casual"
"7DB1D972A022BCC4","electric_bike","2022-12-27 19:47:47","2022-12-27 19:55:44","Francisco Ave & Foster Ave","KA1504000160","Western Ave & Leland Ave","TA1307000140",41.9756583333333,-87.701455,41.966399801841,-87.6887042820454,"casual"
"0E248B5A06E3D714","electric_bike","2022-12-02 12:47:18","2022-12-02 12:54:15","Broadway & Argyle St","13108","Broadway & Thorndale Ave","15575",41.9735983333333,-87.6597706666667,41.98974251144,-87.6601406209,"member"
"648678E404C50F34","classic_bike","2022-12-31 15:43:34","2022-12-31 15:58:16","Streeter Dr & Grand Ave","13022","DuSable Lake Shore Dr & Monroe St","13300",41.892278,-87.612043,41.880958,-87.616743,"casual"
"3CFEBB7A922CB686","classic_bike","2022-12-03 22:56:58","2022-12-03 23:01:38","Michigan Ave & Jackson Blvd","TA1309000002","Michigan Ave & 8th St","623",41.87785,-87.62408,41.872773,-87.623981,"member"
"9C3B5F9AE0FC9868","electric_bike","2022-12-20 17:03:15","2022-12-20 17:33:50","McClurg Ct & Erie St","KA1503000041","Seeley Ave & Roscoe St","13144",41.8946971666667,-87.618732,41.943403,-87.679618,"member"
"6498BB63A8F485FA","classic_bike","2022-12-16 16:07:43","2022-12-16 16:11:32","Desplaines St & Jackson Blvd","15539","Green St & Madison Ave*","chargingstx07",41.8781189009123,-87.6439476013184,41.8818273765714,-87.6488319039345,"member"
"7A694CB50A08E68E","classic_bike","2022-12-07 19:09:32","2022-12-07 19:12:09","Pine Grove Ave & Irving Park Rd","TA1308000022","Broadway & Waveland Ave","13325",41.954383,-87.648043,41.949074,-87.648636,"member"
"BF3068FC688B8A55","electric_bike","2022-12-13 17:37:42","2022-12-13 17:43:50","Ashland Ave & Augusta Blvd","13248","","",41.8996541666667,-87.6685088333333,41.89,-87.67,"member"
"FB6451244BC0B43F","electric_bike","2022-12-02 17:53:06","2022-12-02 18:38:38","Wacker Dr & Washington St","KA1503000072","Sayre & Diversey","352",41.883336782,-87.637344837,41.93,-87.8,"member"
"DA55CCC44391B19A","docked_bike","2022-12-12 17:58:35","2022-12-12 19:11:49","Lincoln Ave & Fullerton Ave","TA1309000058","Clark St & Armitage Ave","13146",41.924161,-87.64638,41.918306,-87.636282,"casual"
"D15D6340A5C7F7CD","classic_bike","2022-12-04 11:58:09","2022-12-04 12:13:19","California Ave & Milwaukee Ave","13084","Kedzie Ave & Chicago Ave","KA1504000114",41.922695,-87.697153,41.89546530305,-87.7061278837,"casual"
"E7BE946C3152DF62","electric_bike","2022-12-20 09:31:29","2022-12-20 09:32:34","","","","",41.89,-87.62,41.89,-87.62,"member"
"B2A6DD6DB7003AC5","electric_bike","2022-12-19 21:08:02","2022-12-19 21:23:26","Halsted St & Polk St","TA1307000121","Halsted St & Maxwell St","TA1309000001",41.8718008333333,-87.6466181666667,41.864883,-87.647071,"casual"
"631CC4C64206BF72","electric_bike","2022-12-01 14:29:00","2022-12-01 14:38:06","Ashland Ave & 13th St","13354","Delano Ct & Roosevelt Rd","KA1706005007",41.865353227,-87.666436434,41.867491,-87.63219,"casual"
"A307AA1EF646FBC3","classic_bike","2022-12-27 12:10:12","2022-12-27 12:15:12","Shore Dr & 55th St","TA1308000009","Cornell Ave & Hyde Park Blvd","KA1503000007",41.795212,-87.580715,41.802406,-87.586924,"member"
"37F63BA78C6E0799","docked_bike","2022-12-02 15:43:47","2022-12-02 16:09:03","Streeter Dr & Grand Ave","13022","Clark St & Armitage Ave","13146",41.892278,-87.612043,41.918306,-87.636282,"casual"
"BD9F070B43A9A038","classic_bike","2022-12-01 16:42:54","2022-12-01 16:49:47","State St & Van Buren St","TA1305000035","Canal St & Adams St","13011",41.877181,-87.627844,41.879255,-87.639904,"member"
"F83091E0221E3375","electric_bike","2022-12-22 14:06:04","2022-12-22 14:17:05","Clinton St & Madison St","TA1305000032","Michigan Ave & Washington St","13001",41.882621884,-87.641206264,41.8839840647265,-87.6246839761734,"member"
"138AF247FDCA5D24","classic_bike","2022-12-15 18:22:03","2022-12-15 18:55:24","Dearborn St & Monroe St","TA1305000006","Wood St & Milwaukee Ave","13221",41.881319815,-87.6295209193,41.907655,-87.672552,"member"
"2087DA4DE9021A14","electric_bike","2022-12-20 21:09:51","2022-12-20 21:21:54","Wood St & Augusta Blvd","657","Ada St & Washington Blvd","13353",41.8991173333333,-87.6722158333333,41.88283,-87.661206,"casual"
"245946A8957C74BA","classic_bike","2022-12-13 16:14:28","2022-12-13 16:19:52","Larrabee St & Oak St","KA1504000116","Wells St & Huron St","TA1306000012",41.90021949323,-87.6429854676,41.894722,-87.634362,"member"
"12BF231D3C31591B","classic_bike","2022-12-08 18:22:58","2022-12-08 18:25:28","Greenview Ave & Jarvis Ave","520","Clark St & Jarvis Ave","517",42.015962,-87.66857,42.015963,-87.675005,"member"
"A5148E6E9004D732","electric_bike","2022-12-07 23:22:41","2022-12-07 23:27:53","","","Altgeld Gardens","20212",41.66,-87.62,41.6566655296737,-87.5988006591797,"casual"
"0806E4D0019AE427","electric_bike","2022-12-04 11:50:33","2022-12-04 11:54:16","Clinton St & Madison St","TA1305000032","Franklin St & Jackson Blvd","TA1305000025",41.882736683,-87.641654372,41.8777079559,-87.6353211408,"member"
"3A3D41F4D396C0DD","classic_bike","2022-12-07 18:24:06","2022-12-07 19:01:23","LaSalle St & Illinois St","13430","Lincoln Ave & Waveland Ave","13253",41.890762,-87.631697,41.948797,-87.675278,"member"
"E4E98EF649B2CB3E","electric_bike","2022-12-17 15:13:04","2022-12-17 15:20:37","Clark St & Elm St","TA1307000039","","",41.902858734,-87.631487727,41.92,-87.64,"member"
"D0B73AF2F91EE647","electric_bike","2022-12-03 00:04:13","2022-12-03 00:29:32","","","Burling St & Diversey Pkwy","TA1309000036",41.88,-87.63,41.93314,-87.64776,"member"
"683D791C319F37A5","electric_bike","2022-12-04 20:39:49","2022-12-04 20:44:48","","","Winchester (Ravenswood) Ave & Balmoral Ave","KA1504000147",41.98,-87.69,41.979762,-87.67753,"member"
"CC65F6AEC778C00E","classic_bike","2022-12-10 16:04:32","2022-12-10 16:29:22","Shedd Aquarium","15544","Michigan Ave & Jackson Blvd","TA1309000002",41.86722595682,-87.6153553902,41.87785,-87.62408,"casual"
"6D221FE40E5E4622","electric_bike","2022-12-04 13:17:05","2022-12-04 13:22:32","Michigan Ave & 8th St","623","Shedd Aquarium","15544",41.872713089,-87.623911023,41.86722595682,-87.6153553902,"casual"
"753720E7B3BDCE77","classic_bike","2022-12-17 08:16:50","2022-12-17 08:19:40","Clark St & Jarvis Ave","517","Greenview Ave & Jarvis Ave","520",42.015963,-87.675005,42.015962,-87.66857,"member"
"1123A37D3C982A28","electric_bike","2022-12-20 16:54:00","2022-12-20 17:04:33","","","Damen Ave & Melrose Ave","13143",41.96,-87.68,41.9406,-87.6785,"member"
"075688A10A3EAF8A","classic_bike","2022-12-28 11:06:50","2022-12-28 11:11:12","Racine Ave & Belmont Ave","TA1308000019","Lincoln Ave & Diversey Pkwy","TA1307000064",41.939743,-87.658865,41.932225,-87.658617,"member"
"71EF1ED1E73DC4C2","classic_bike","2022-12-29 11:06:04","2022-12-29 11:11:55","Lakefront Trail & Bryn Mawr Ave","15576","Broadway & Thorndale Ave","15575",41.9840441151921,-87.6522812247276,41.98974251144,-87.6601406209,"member"
"526B7A55A6CBD703","classic_bike","2022-12-08 20:00:57","2022-12-08 20:05:30","Kimbark Ave & 53rd St","TA1309000037","Ellis Ave & 55th St","KA1504000076",41.799568,-87.594747,41.79430062054,-87.6014497734,"member"
"85CFDC7E1FC8EDE0","classic_bike","2022-12-08 15:12:37","2022-12-08 15:53:55","Franklin St & Jackson Blvd","TA1305000025","Clark St & Grace St","TA1307000127",41.8777079559,-87.6353211408,41.95078,-87.659172,"member"
"BC611405A58ADFBC","classic_bike","2022-12-06 07:40:27","2022-12-06 07:50:23","Wells St & Walton St","TA1306000011","Franklin St & Monroe St","TA1309000007",41.89993001,-87.63443007,41.880317,-87.635185,"member"
"72511994A6E03F87","electric_bike","2022-12-21 18:44:36","2022-12-21 18:56:32","Canal St & Madison St","13341","Wabash Ave & Grand Ave","TA1307000117",41.882002234,-87.639652133,41.891466,-87.626761,"casual"
"D4115A3C53C8E016","electric_bike","2022-12-15 15:57:06","2022-12-15 16:06:54","Dearborn St & Erie St","13045","Clinton St & Lake St","13021",41.894168258,-87.629387379,41.885637,-87.641823,"casual"
"865449C3E7103469","classic_bike","2022-12-14 12:29:40","2022-12-14 12:57:51","Greenview Ave & Jarvis Ave","520","University Library (NU)","605",42.015962,-87.66857,42.052939,-87.673447,"member"
"727558613FE162E6","electric_bike","2022-12-03 09:47:49","2022-12-03 09:49:06","DuSable Lake Shore Dr & Wellington Ave","TA1307000041","DuSable Lake Shore Dr & Diversey Pkwy","TA1309000039",41.9367455,-87.636816,41.932588,-87.636427,"member"
"EFE3FD4ADE39A795","electric_bike","2022-12-11 03:32:55","2022-12-11 03:54:30","Public Rack - Kostner Ave & Armitage Ave","866","Public Rack - Kostner Ave & Armitage Ave","866",41.92,-87.74,41.92,-87.74,"member"
"3CDE381129AAE37C","electric_bike","2022-12-03 16:56:14","2022-12-03 17:08:15","Pulaski Rd & Eddy St (Temp)","KA1504000141","","",41.946266,-87.7310968333333,41.92,-87.73,"casual"
"B7F091C3C7319D5C","classic_bike","2022-12-08 07:59:22","2022-12-08 08:04:15","Clinton St & Roosevelt Rd","WL-008","Clinton St & 18th St","TA1307000044",41.8671177825,-87.6410879593,41.85795,-87.640826,"member"
"43FC327AE31C8092","electric_bike","2022-12-01 17:01:43","2022-12-01 17:05:12","Kingsbury St & Kinzie St","KA1503000043","Clinton St & Washington Blvd","WL-012",41.889270902,-87.638498902,41.88338,-87.64117,"member"
"39A45949DDDEC447","classic_bike","2022-12-08 10:47:00","2022-12-08 11:02:19","Damen Ave & Clybourn Ave","13271","Dayton St & North Ave","13058",41.931931,-87.677856,41.9105780349,-87.6494219288,"casual"
"A8B2DA8EFC287B68","electric_bike","2022-12-13 11:20:15","2022-12-13 11:34:28","","","Clark St & Bryn Mawr Ave","KA1504000151",42.02,-87.67,41.983593,-87.669154,"member"
"485DE42A56F5E8A5","electric_bike","2022-12-19 18:00:45","2022-12-19 18:12:24","","","","",41.94,-87.65,41.92,-87.65,"member"
"2E2B77A02D854CC5","electric_bike","2022-12-07 18:05:26","2022-12-07 18:11:49","","","","",41.89,-87.63,41.88,-87.64,"member"
"244654E7E8597639","classic_bike","2022-12-28 21:16:58","2022-12-28 21:24:53","Larrabee St & Webster Ave","13193","Sedgwick St & North Ave","TA1307000038",41.921822,-87.64414,41.911386,-87.638677,"casual"
"C406A5B84AEF1492","electric_bike","2022-12-12 20:18:03","2022-12-12 20:48:15","Talman Ave & Addison St","15632","","",41.946673274,-87.694678307,41.9,-87.62,"member"
"739682FB73BFAD93","electric_bike","2022-12-02 16:49:44","2022-12-02 17:06:54","Ashland Ave & Grand Ave","13434","Fairbanks Ct & Grand Ave","TA1305000003",41.8910795,-87.6667441666667,41.8918473721099,-87.6205801963806,"member"
"3F48A8051EFF45A1","electric_bike","2022-12-21 08:44:02","2022-12-21 08:57:05","","","","",41.92,-87.67,41.9,-87.63,"member"
"6824180FC7F95B40","classic_bike","2022-12-31 16:36:47","2022-12-31 17:03:16","Ashland Ave & Wrightwood Ave","13296","Avers Ave & Belmont Ave","15640",41.92883,-87.668507,41.939408,-87.723574,"member"
"5483718E9B017732","electric_bike","2022-12-04 10:21:22","2022-12-04 10:30:49","Kedzie Ave & Foster Ave","KA1504000128","Winchester (Ravenswood) Ave & Balmoral Ave","KA1504000147",41.975663185,-87.709283829,41.979762,-87.67753,"casual"
"1E51789684720886","electric_bike","2022-12-02 16:30:42","2022-12-02 16:32:27","","","","",42,-87.66,42,-87.66,"casual"
"64FDDE5AEE34B535","classic_bike","2022-12-13 23:51:31","2022-12-14 00:09:07","Dearborn St & Erie St","13045","Lakeview Ave & Fullerton Pkwy","TA1309000019",41.893992,-87.629318,41.925858,-87.638973,"member"
"A0D3B30A29FC9C2C","classic_bike","2022-12-05 19:11:50","2022-12-05 19:14:01","Halsted St & Wrightwood Ave","TA1309000061","Sheffield Ave & Wrightwood Ave","TA1309000023",41.929143,-87.649077,41.928712,-87.653833,"member"
"7088239D6821BD5E","classic_bike","2022-12-07 18:25:41","2022-12-07 18:37:21","Damen Ave & Madison St","13134","Green St & Madison Ave*","chargingstx07",41.88137,-87.67493,41.8818273765714,-87.6488319039345,"member"
"96EC993DB16C8C5F","classic_bike","2022-12-29 09:12:32","2022-12-29 09:26:25","Canal St & Adams St","13011","Ashland Ave & Grand Ave","13434",41.879255,-87.639904,41.891072,-87.666611,"casual"
"D3340BACA07FEAE8","electric_bike","2022-12-22 11:10:55","2022-12-22 11:16:09","Damen Ave & Cullerton St","13089","","",41.854982138,-87.675602078,41.86,-87.66,"casual"
"8AE68C05FD07371F","electric_bike","2022-12-06 15:38:07","2022-12-06 15:38:23","University Library (NU)","605","","",42.052988887,-87.673247337,42.05,-87.67,"member"
"F9E86AE08C47F9AB","electric_bike","2022-12-02 16:43:21","2022-12-02 16:51:51","Sheridan Rd & Montrose Ave","TA1307000107","","",41.9615668333333,-87.6546326666667,41.94,-87.64,"member"
"9B93F8A5B8DBAC49","classic_bike","2022-12-03 16:51:58","2022-12-03 17:01:45","Leavitt St & Addison St","KA1504000143","Lincoln Ave & Roscoe St*","chargingstx5",41.946655,-87.683359,41.9433502470174,-87.6706677675247,"casual"
"2C1C33BF32407E1D","electric_bike","2022-12-08 07:18:46","2022-12-08 07:29:15","Sheffield Ave & Willow St","TA1306000032","Clinton St & Washington Blvd","WL-012",41.9137353333333,-87.6528493333333,41.88338,-87.64117,"member"
"6ED0F1D7A62E584F","electric_bike","2022-12-12 08:53:53","2022-12-12 08:59:31","Ashland Ave & Division St","13061","Carpenter St & Huron St","13196",41.903389,-87.6678626666667,41.894556,-87.653449,"member"
"6E9C89919C22DEFA","electric_bike","2022-12-07 13:47:07","2022-12-07 13:55:15","Shore Dr & 55th St","TA1308000009","University Ave & 57th St","KA1503000071",41.7953073333333,-87.5809765,41.791478,-87.599861,"member"
"FE48691095E18D44","classic_bike","2022-12-06 08:36:04","2022-12-06 08:44:25","MLK Jr Dr & 29th St","TA1307000139","State St & 33rd St","13216",41.842052,-87.617,41.834734,-87.625813,"member"
"4AEB1CC7193F9F39","classic_bike","2022-12-10 20:32:03","2022-12-10 20:36:55","Greenview Ave & Fullerton Ave","TA1307000001","Sheffield Ave & Wrightwood Ave","TA1309000023",41.92533,-87.6658,41.928712,-87.653833,"member"
"CA9E84A7C987B888","classic_bike","2022-12-08 22:18:40","2022-12-08 22:27:26","Leavitt St & Archer Ave","KA1503000068","Ashland Ave & Pershing Rd","16932",41.82879201994,-87.6806044594,41.823465,-87.665577,"casual"
"04687C287AE2E749","classic_bike","2022-12-08 13:30:07","2022-12-08 13:48:27","Michigan Ave & Madison St","13036","Ashland Ave & Division St","13061",41.882134,-87.625125,41.90345,-87.667747,"member"
"B2950A531D32F50E","electric_bike","2022-12-02 19:35:02","2022-12-02 20:01:31","","","","",41.93,-87.69,41.96,-87.66,"casual"
"7ABDD258CAA0521A","classic_bike","2022-12-19 14:31:43","2022-12-19 14:50:29","Ravenswood Ave & Berteau Ave","TA1309000018","Sheffield Ave & Waveland Ave","TA1307000126",41.957921,-87.673567,41.949399,-87.654529,"casual"
"AB104D867F90C543","electric_bike","2022-12-07 11:43:55","2022-12-07 11:48:42","Racine Ave & Washington Blvd","654","Desplaines St & Randolph St","15535",41.883064508,-87.65708518,41.88461618962,-87.6445705849,"member"
"64F55D3BCF7A216F","classic_bike","2022-12-31 13:37:13","2022-12-31 14:05:57","Broadway & Barry Ave","13137","Clark St & Schiller St","TA1309000024",41.9375823160063,-87.6440978050232,41.907993,-87.631501,"casual"
"EFB353CA9AD5F354","electric_bike","2022-12-13 09:26:09","2022-12-13 09:44:21","","","McClurg Ct & Erie St","KA1503000041",41.94,-87.65,41.894503,-87.617854,"member"
"B5694AD0098593CF","classic_bike","2022-12-09 17:00:40","2022-12-09 17:06:46","Wells St & Elm St","KA1504000135","Halsted St & Clybourn Ave","331",41.903222,-87.634324,41.909668,-87.648128,"member"
"3BAAAF8F98AC429E","electric_bike","2022-12-19 16:31:03","2022-12-19 16:36:11","LaSalle St & Washington St","13006","Columbus Dr & Randolph St","13263",41.8827643333333,-87.6326375,41.884728,-87.619521,"casual"
"54C2F1AB1997EC07","classic_bike","2022-12-04 11:13:43","2022-12-04 11:20:02","Kingsbury St & Erie St","13265","Clybourn Ave & Division St","TA1307000115",41.8938080562436,-87.6416972279549,41.904613,-87.640552,"member"
"412CAFD48F27A13A","classic_bike","2022-12-07 06:52:20","2022-12-07 07:06:17","Clinton St & Washington Blvd","WL-012","Wolcott Ave & Polk St","TA1309000064",41.88338,-87.64117,41.871262,-87.673688,"member"
"6C632D26E64FD389","classic_bike","2022-12-29 15:17:30","2022-12-29 15:23:33","State St & Randolph St","TA1305000029","Clinton St & Lake St","13021",41.8846210725794,-87.6278342306614,41.885637,-87.641823,"member"
"7ED804B7DBD1986A","electric_bike","2022-12-29 19:07:23","2022-12-29 19:12:54","Halsted St & Roscoe St","TA1309000025","Sheridan Rd & Irving Park Rd","13063",41.943638682,-87.648892641,41.954245,-87.654406,"member"
"90A984886A97291C","electric_bike","2022-12-29 17:31:46","2022-12-29 17:39:59","N Carpenter St & W Lake St","20251.0","Damen Ave & Grand Ave","TA1308000006",41.89,-87.65,41.8923944529627,-87.6768851280212,"member"
"67130240FBDFC2F5","classic_bike","2022-12-05 17:17:09","2022-12-05 17:28:03","Wabash Ave & Wacker Pl","TA1307000131","LaSalle St & Adams St","KA1503000034",41.886875,-87.62603,41.87934437346,-87.6319852213,"member"
"4FD48DA12E3BDD97","electric_bike","2022-12-01 10:20:45","2022-12-01 10:30:39","","","","",41.9,-87.77,41.91,-87.78,"casual"
"0096494E6FDBA83C","docked_bike","2022-12-11 15:55:06","2022-12-11 15:56:11","Shedd Aquarium","15544","Shedd Aquarium","15544",41.867226,-87.615355,41.867226,-87.615355,"casual"
"99451D853438F950","electric_bike","2022-12-10 15:59:03","2022-12-10 16:03:49","Kimbark Ave & 53rd St","TA1309000037","Ellis Ave & 60th St","KA1503000014",41.799575567,-87.594792962,41.78509714636,-87.6010727606,"member"
"7477B286F7304EF5","electric_bike","2022-12-01 14:21:32","2022-12-01 14:26:25","May St & Taylor St","13160","Racine Ave & 18th St","13164",41.869421005,-87.655461907,41.858166,-87.656495,"member"
"F699E17AFBE9E4CC","electric_bike","2022-12-10 09:24:41","2022-12-10 09:41:10","Kedzie Ave & Milwaukee Ave","13085","","",41.929567814,-87.707889438,41.95,-87.66,"member"
"20644590EA9DD34A","classic_bike","2022-12-06 16:26:06","2022-12-06 17:04:36","Burling St & Diversey Pkwy","TA1309000036","Warren Park West","RP-001",41.93314,-87.64776,42.001785,-87.688829,"member"
"EDBD91AE6FD02A90","electric_bike","2022-12-12 19:25:33","2022-12-12 19:26:12","","","","",41.97,-87.68,41.97,-87.68,"member"
"C56514A14E060B71","classic_bike","2022-12-04 18:10:35","2022-12-04 18:12:45","Aberdeen St & Jackson Blvd","13157","Peoria St & Jackson Blvd","13158",41.87772613,-87.65478743,41.8776415962753,-87.6496177911758,"member"
"D16646BD709793CB","electric_bike","2022-12-05 16:56:43","2022-12-05 17:09:31","","","Clark St & Drummond Pl","TA1307000142",41.9,-87.63,41.931248,-87.644336,"member"
"E5172AA269A8E43B","electric_bike","2022-12-09 09:43:23","2022-12-09 09:46:47","","","","",41.79,-87.73,41.79,-87.73,"casual"
"859D113CEA6C3841","electric_bike","2022-12-15 18:18:59","2022-12-15 18:31:09","Sangamon St & Lake St","TA1306000015","Honore St & Division St","TA1305000034",41.8858635,-87.651102,41.903119,-87.673935,"member"
"421CD092CC875AEC","classic_bike","2022-12-03 19:36:52","2022-12-03 19:55:56","Sheffield Ave & Wellington Ave","TA1307000052","Sheffield Ave & Wellington Ave","TA1307000052",41.9362534831413,-87.6526620984077,41.9362534831413,-87.6526620984077,"casual"
"02C7D5458700EDF4","electric_bike","2022-12-07 13:25:07","2022-12-07 13:30:11","","","California Ave & Milwaukee Ave","13084",41.91,-87.7,41.922695,-87.697153,"member"
"6E1E423C89D193CA","electric_bike","2022-12-09 18:54:48","2022-12-09 19:00:17","Sheffield Ave & Waveland Ave","TA1307000126","Racine Ave & Belmont Ave","TA1308000019",41.9492323333333,-87.6545198333333,41.939743,-87.658865,"member"
"E555BF40681C6B97","electric_bike","2022-12-17 19:48:47","2022-12-17 19:50:28","Central Ave & Roscoe St","396","Central Ave & Roscoe St","396",41.94,-87.77,41.94,-87.77,"member"
"747E2A9B9016765B","electric_bike","2022-12-17 08:08:29","2022-12-17 08:11:09","Morgan St & 31st St","TA1308000046","Halsted St & 35th St","TA1308000043",41.837776423,-87.651164412,41.830661,-87.647172,"casual"
"6FE70AAD53D081F1","electric_bike","2022-12-06 11:42:42","2022-12-06 11:57:58","","","Monticello Ave & Irving Park Rd","KA1504000139",41.94,-87.69,41.95400483876,-87.7191281797,"member"
"43D2FFBC3C0B2690","electric_bike","2022-12-14 00:21:35","2022-12-14 00:35:05","Southport Ave & Wrightwood Ave","TA1307000113","Larrabee St & Division St","KA1504000079",41.928721547,-87.663800597,41.90348607004,-87.6433534936,"member"
"62F06EA08C1C3EDB","electric_bike","2022-12-31 14:57:57","2022-12-31 15:12:15","Wells St & Concord Ln","TA1308000050","Clinton St & Lake St","13021",41.9120303333333,-87.6349563333333,41.885637,-87.641823,"member"
"6E2ED5E501DD89D7","electric_bike","2022-12-12 14:52:27","2022-12-12 15:07:09","Dearborn St & Erie St","13045","Western Ave & Walton St","KA1504000103",41.8941311666667,-87.6292973333333,41.89841768945,-87.6865960164,"member"
"BA3EF4505FA1C188","electric_bike","2022-12-07 09:32:29","2022-12-07 09:42:44","DuSable Lake Shore Dr & Monroe St","13300","Michigan Ave & 8th St","623",41.8809873333333,-87.6167498333333,41.872773,-87.623981,"casual"
"E70F51B91D07B65B","electric_bike","2022-12-07 23:16:28","2022-12-07 23:20:51","","","","",41.89,-87.65,41.89,-87.66,"casual"
"DFB1745FABC06010","classic_bike","2022-12-05 19:41:18","2022-12-05 19:43:25","Wolcott Ave & Polk St","TA1309000064","Hermitage Ave & Polk St","13080",41.871262,-87.673688,41.871514,-87.669886,"member"
"1DA475D96071C6BE","electric_bike","2022-12-03 08:51:42","2022-12-03 08:57:23","Wells St & Evergreen Ave","TA1308000049","","",41.906691,-87.6351246666667,41.91,-87.64,"casual"
"5F102E6DE370D1AC","electric_bike","2022-12-19 17:48:25","2022-12-19 17:50:18","Pine Grove Ave & Irving Park Rd","TA1308000022","Sheridan Rd & Irving Park Rd","13063",41.9542456666667,-87.648348,41.954245,-87.654406,"member"
"A819DDB06ED67AD0","electric_bike","2022-12-06 21:36:27","2022-12-06 21:51:53","","","","",41.91,-87.63,41.88,-87.66,"member"
"CA5FC99763922416","classic_bike","2022-12-06 19:23:13","2022-12-06 19:26:36","Clark St & Grace St","TA1307000127","Broadway & Sheridan Rd","13323",41.95078,-87.659172,41.952833,-87.649993,"member"
"FA00FA3ADC992E81","electric_bike","2022-12-06 13:51:06","2022-12-06 13:55:00","","","Hoyne Ave & Balmoral Ave","655",41.98,-87.67,41.979851,-87.681932,"member"
"410FFE443F87F63A","electric_bike","2022-12-27 12:04:52","2022-12-27 12:12:22","Orleans St & Merchandise Mart Plaza","TA1305000022","Wabash Ave & Grand Ave","TA1307000117",41.888231874,-87.636742711,41.891466,-87.626761,"member"
"27DE884279B71E09","electric_bike","2022-12-13 08:28:03","2022-12-13 08:41:38","Public Rack - Christiana Ave & Belmont Ave","499","Southport Ave & Belmont Ave","13229",41.94,-87.71,41.9394777504051,-87.6637476682663,"member"
"7D0401147F4DC5F0","electric_bike","2022-12-14 15:24:37","2022-12-14 15:30:52","Campbell Ave & North Ave","13257","Ashland Ave & Blackhawk St","13224",41.91049242,-87.68955195,41.907066,-87.667252,"casual"
"AE03CE0816CCD978","electric_bike","2022-12-17 20:19:18","2022-12-17 20:50:06","Greenview Ave & Fullerton Ave","TA1307000001","","",41.925469279,-87.665887713,41.94,-87.65,"member"
"0D599DAEB35B9C72","electric_bike","2022-12-13 15:59:14","2022-12-13 16:05:34","","","Aberdeen St & Jackson Blvd","13157",41.88,-87.65,41.87772613,-87.65478743,"member"
"22C5C3D1E6E8F430","electric_bike","2022-12-16 10:30:55","2022-12-16 10:38:27","Ashland Ave & Augusta Blvd","13248","N Green St & W Lake St","20246.0",41.899657845,-87.668475628,41.89,-87.65,"member"
"830FD820E6472856","electric_bike","2022-12-02 15:13:36","2022-12-02 15:32:11","Broadway & Barry Ave","13137","LaSalle St & Illinois St","13430",41.93764174,-87.644079685,41.890762,-87.631697,"member"
"AA84DAC901B0A019","electric_bike","2022-12-09 20:16:22","2022-12-09 20:29:57","","","Public Rack - Christiana Ave & Belmont Ave","499",41.94,-87.65,41.94,-87.71,"member"
"96FC3C406573934A","classic_bike","2022-12-10 11:37:07","2022-12-10 12:00:37","Winchester Ave & Elston Ave","KA1504000140","Clark St & Randolph St","TA1305000030",41.92409085038,-87.6764600747,41.884576228,-87.63188991,"member"
"B6E4B30B74BB2D50","classic_bike","2022-12-07 08:49:24","2022-12-07 08:57:58","Wells St & Concord Ln","TA1308000050","Wells St & Huron St","TA1306000012",41.912133,-87.634656,41.894722,-87.634362,"member"
"3029CCA91CD72981","classic_bike","2022-12-05 17:14:49","2022-12-05 17:17:08","Clinton St & Jackson Blvd","638","Desplaines St & Jackson Blvd","15539",41.8783166118307,-87.6409810781479,41.8781189009123,-87.6439476013184,"member"
"59F54DE40B8097E3","classic_bike","2022-12-07 18:23:21","2022-12-07 18:29:19","Franklin St & Jackson Blvd","TA1305000025","Clark St & 9th St (AMLI)","SL-009",41.8777079559,-87.6353211408,41.870816,-87.631246,"member"
"217615EC116FF590","electric_bike","2022-12-30 01:55:03","2022-12-30 01:56:58","","","","",41.92,-87.65,41.91,-87.65,"casual"
"3DBD4C213BFC1FC6","electric_bike","2022-12-15 20:54:35","2022-12-15 20:57:34","Richmond St & Diversey Ave","15645","Kedzie Ave & Milwaukee Ave","13085",41.9318796666667,-87.7012025,41.929567,-87.707857,"member"
"AA0D90C3C19EC39C","classic_bike","2022-12-23 22:44:20","2022-12-23 22:50:18","Clark St & Elm St","TA1307000039","State St & Chicago Ave","21544",41.902973,-87.63128,41.8966172004075,-87.628578543663,"member"
"1F4D7204A1131426","electric_bike","2022-12-03 14:10:08","2022-12-03 14:28:20","Clarendon Ave & Gordon Ter","13379","","",41.957856,-87.6495623333333,41.97,-87.67,"casual"
"B2658A1C8C8768BE","electric_bike","2022-12-31 15:45:43","2022-12-31 16:05:30","Field Museum","13029","Michigan Ave & 8th St","623",41.865294456,-87.61797297,41.872773,-87.623981,"casual"
"16BB2223ACC5DC92","classic_bike","2022-12-16 11:58:42","2022-12-16 12:15:46","Larrabee St & Kingsbury St","TA1306000009","Wilton Ave & Diversey Pkwy","TA1306000014",41.897764,-87.642884,41.932418,-87.652705,"member"
"16029E480C866076","docked_bike","2022-12-04 12:54:25","2022-12-04 14:02:55","Clark St & Armitage Ave","13146","Theater on the Lake","TA1308000001",41.918306,-87.636282,41.926277,-87.630834,"casual"
"B125019C754FC5B8","classic_bike","2022-12-09 12:34:19","2022-12-09 12:40:14","LaSalle St & Washington St","13006","Clinton St & Lake St","13021",41.882664,-87.63253,41.885637,-87.641823,"member"
"01FFB1DCEF41D48F","electric_bike","2022-12-18 12:27:43","2022-12-18 12:34:54","Clarendon Ave & Gordon Ter","13379","Broadway & Belmont Ave","13277",41.957751274,-87.649424911,41.940106,-87.645451,"member"
"4DACD436FFB46B43","electric_bike","2022-12-18 12:41:12","2022-12-18 12:46:36","Delano Ct & Roosevelt Rd","KA1706005007","Canal St & Monroe St","13056",41.867502,-87.6321598333333,41.88169,-87.63953,"member"
"A059E35FBDBCD6DB","classic_bike","2022-12-09 11:54:28","2022-12-09 12:00:06","Sheffield Ave & Fullerton Ave","TA1306000016","Sheffield Ave & Willow St","TA1306000032",41.9256018819,-87.6537080423,41.913688,-87.652855,"member"
"E07FD120142D6F0B","classic_bike","2022-12-07 18:45:40","2022-12-07 18:51:32","Wacker Dr & Washington St","KA1503000072","State St & Randolph St","TA1305000029",41.8831433643902,-87.6372420787811,41.8846210725794,-87.6278342306614,"member"
"40DCAF7BAA1BC442","electric_bike","2022-12-03 16:49:00","2022-12-03 16:55:32","California Ave & North Ave","13258","Damen Ave & Division St","13136",41.910504103,-87.697322488,41.903266,-87.678435,"casual"
"F453F3AD7EEDE0D5","electric_bike","2022-12-02 12:01:37","2022-12-02 12:03:37","McClurg Ct & Erie St","KA1503000041","","",41.894067,-87.6187815,41.9,-87.62,"casual"
"271D2F3F52144E1D","classic_bike","2022-12-31 20:22:40","2022-12-31 20:25:56","Shore Dr & 55th St","TA1308000009","Lake Park Ave & 56th St","TA1309000063",41.795212,-87.580715,41.793242,-87.587782,"member"
"EBB3C88031CE1D95","electric_bike","2022-12-28 15:10:22","2022-12-28 15:13:08","","","Wentworth Ave & Cermak Rd","13075",41.85,-87.62,41.8530845574128,-87.6319313049316,"member"
"98B86860A6D2CF46","classic_bike","2022-12-29 15:09:44","2022-12-29 15:17:45","Halsted St & Wrightwood Ave","TA1309000061","Sheffield Ave & Willow St","TA1306000032",41.929143,-87.649077,41.913688,-87.652855,"member"
"642132A197E221C1","electric_bike","2022-12-08 19:03:22","2022-12-08 19:34:42","Sheridan Rd & Columbia Ave","660","","",42.0045886666667,-87.661478,42.04,-87.68,"member"
"FB9074115A9F6EDA","electric_bike","2022-12-07 12:58:46","2022-12-07 12:58:52","Daley Center Plaza","TA1306000010","Daley Center Plaza","TA1306000010",41.883746982,-87.629572988,41.884241,-87.629634,"member"
"F27021464D2F7A44","electric_bike","2022-12-06 15:02:53","2022-12-06 15:06:04","Wells St & Elm St","KA1504000135","Rush St & Cedar St","KA1504000133",41.9031513333333,-87.634532,41.90230870122,-87.627690528,"member"
"0693B3A8624C14FC","classic_bike","2022-12-05 16:52:52","2022-12-05 16:58:53","MLK Jr Dr & 29th St","TA1307000139","Rhodes Ave & 32nd St","13215",41.842052,-87.617,41.836208,-87.613533,"member"
"072A44E7EF7D59C9","classic_bike","2022-12-02 13:19:47","2022-12-02 13:32:57","Halsted St & Clybourn Ave","331","Rush St & Superior St","15530",41.909668,-87.648128,41.89576474564,-87.6259080327,"casual"
"D5BFF58E43B3A01B","electric_bike","2022-12-14 08:46:56","2022-12-14 08:50:12","Halsted St & Polk St","TA1307000121","Desplaines St & Jackson Blvd","15539",41.8717606666667,-87.6466135,41.8781189009123,-87.6439476013184,"member"
"556BFDECCCD1CAD4","electric_bike","2022-12-02 13:23:50","2022-12-02 13:47:14","Calumet Ave & 35th St","13345","","",41.8314153333333,-87.6180055,41.78,-87.61,"member"
"0372BFE81DB6B91C","classic_bike","2022-12-13 10:59:38","2022-12-13 11:05:48","Sheridan Rd & Irving Park Rd","13063","Clark St & Montrose Ave","KA1503000022",41.954245,-87.654406,41.961588,-87.666036,"member"
"46601D46EB81AD7C","classic_bike","2022-12-01 12:05:32","2022-12-01 12:17:11","Michigan Ave & Lake St","TA1305000011","Canal St & Adams St","13011",41.886024,-87.624117,41.879255,-87.639904,"member"
"2F1F78C68EF2834B","classic_bike","2022-12-13 18:04:46","2022-12-13 18:12:39","Ashland Ave & Division St","13061","Western Ave & Walton St","KA1504000103",41.90345,-87.667747,41.89841768945,-87.6865960164,"member"
"43E450EAE600CEC0","classic_bike","2022-12-27 21:05:38","2022-12-27 21:55:31","State St & Chicago Ave","21544","Wabash Ave & Grand Ave","TA1307000117",41.8966172004075,-87.628578543663,41.891466,-87.626761,"member"
"BC127A6DC5D7C18B","classic_bike","2022-12-19 11:23:10","2022-12-19 11:23:47","Daley Center Plaza","TA1306000010","Daley Center Plaza","TA1306000010",41.884241,-87.629634,41.884241,-87.629634,"member"
"AACBE7FE1BDBFFA0","electric_bike","2022-12-06 14:36:14","2022-12-06 14:59:36","State St & 35th St","TA1307000129","Larrabee St & Kingsbury St","TA1306000009",41.8312081666667,-87.6269975,41.897764,-87.642884,"member"
"4AB9B5293BDF8A67","electric_bike","2022-12-18 14:53:07","2022-12-18 14:56:23","Kedzie Ave & Milwaukee Ave","13085","Kedzie Ave & Palmer Ct","13292",41.929587603,-87.707818151,41.921525,-87.707322,"member"
"6BB698CC9A896942","electric_bike","2022-12-06 15:05:39","2022-12-06 15:14:25","","","Clark St & Chicago Ave","13303",41.89,-87.64,41.89675,-87.63089,"member"
"D7D321A141533347","electric_bike","2022-12-05 20:31:23","2022-12-05 20:35:43","Sheffield Ave & Wrightwood Ave","TA1309000023","Racine Ave & Belmont Ave","TA1308000019",41.928721547,-87.653901935,41.939743,-87.658865,"member"
"E8795F99A5C2E928","electric_bike","2022-12-15 09:05:32","2022-12-15 09:05:50","","","","",41.95,-87.65,41.95,-87.65,"member"
"5441D02C3B2D4A7B","classic_bike","2022-12-18 10:40:17","2022-12-18 10:48:50","Campbell Ave & Montrose Ave","15623","Ravenswood Ave & Lawrence Ave","TA1309000066",41.961524,-87.691177,41.96909,-87.674237,"member"
"57FE72AEF9931642","electric_bike","2022-12-08 10:52:58","2022-12-08 11:18:34","DuSable Lake Shore Dr & Monroe St","13300","Michigan Ave & Pearson St","13034",41.881039619,-87.61677289,41.89766,-87.62351,"casual"
"F05D703343A8094F","classic_bike","2022-12-14 08:18:52","2022-12-14 08:48:40","Broadway & Thorndale Ave","15575","Sheridan Rd & Noyes St (NU)","604",41.98974251144,-87.6601406209,42.058239,-87.677432,"member"
"64F8CBCDE095D8FD","electric_bike","2022-12-11 21:51:41","2022-12-11 21:58:14","Wilton Ave & Belmont Ave","TA1307000134","Halsted St & Roscoe St","TA1309000025",41.9399875,-87.6530468333333,41.94367,-87.64895,"casual"
"01C3CD0913BBE478","classic_bike","2022-12-09 23:48:54","2022-12-10 00:29:34","Damen Ave & Cortland St","13133","Pine Grove Ave & Irving Park Rd","TA1308000022",41.915983,-87.677335,41.954383,-87.648043,"casual"
"C26432EAB446BD59","electric_bike","2022-12-01 09:55:41","2022-12-01 10:21:22","Michigan Ave & Oak St","13042","","",41.900988936,-87.623748183,41.9,-87.63,"member"
"0F0D385907AB7FFC","electric_bike","2022-12-03 15:02:13","2022-12-03 15:09:53","Sheffield Ave & Waveland Ave","TA1307000126","Clark St & Wellington Ave","TA1307000136",41.949289,-87.6544506666667,41.9364968219,-87.6475386582,"casual"
"B8617DAE63920EB8","classic_bike","2022-12-12 17:15:53","2022-12-12 17:23:37","Green St & Randolph St*","chargingstx3","Halsted St & Roosevelt Rd","TA1305000017",41.8836016572752,-87.6486267149448,41.867324,-87.648625,"casual"
"830AE82824E63482","electric_bike","2022-12-28 08:50:37","2022-12-28 09:04:58","Southport Ave & Clybourn Ave","TA1309000030","Wells St & Huron St","TA1306000012",41.920810103,-87.663708329,41.894722,-87.634362,"member"
"71317DC0CA396218","electric_bike","2022-12-15 17:53:29","2022-12-15 18:01:27","","","Daley Center Plaza","TA1306000010",41.88,-87.65,41.884241,-87.629634,"member"
"A6B060F52261DC9F","electric_bike","2022-12-07 08:34:54","2022-12-07 08:42:48","","","Daley Center Plaza","TA1306000010",41.91,-87.63,41.884241,-87.629634,"member"
"FCED7B5968889DB4","electric_bike","2022-12-30 10:41:57","2022-12-30 10:51:20","","","Clark St & Lake St","KA1503000012",41.9,-87.65,41.88602082773,-87.6308760584,"member"
"F1A3CAE7D1738F0B","electric_bike","2022-12-30 15:56:35","2022-12-30 16:08:06","N Green St & W Lake St","20246.0","Rush St & Superior St","15530",41.89,-87.65,41.89576474564,-87.6259080327,"member"
"727084D302EC549A","electric_bike","2022-12-07 14:51:54","2022-12-07 15:06:23","Damen Ave & Pierce Ave","TA1305000041","Lincoln Ave & Diversey Pkwy","TA1307000064",41.90949595,-87.677604914,41.932225,-87.658617,"casual"
"148CBEF460235FD9","electric_bike","2022-12-13 04:18:49","2022-12-13 04:23:42","","","","",41.93,-87.72,41.93,-87.71,"casual"
"27EF2BA60B45EA15","electric_bike","2022-12-12 07:09:55","2022-12-12 07:18:03","Campbell Ave & Montrose Ave (Temp)","15623","","",41.961482882,-87.692316532,41.98,-87.71,"member"
"6E282BB8BF91A172","electric_bike","2022-12-12 17:27:57","2022-12-12 17:47:49","Orleans St & Chestnut St (NEXT Apts)","620","Ogden Ave & Congress Pkwy","13081",41.8980723333333,-87.6376521666667,41.87501,-87.67328,"member"
"CE148C51B4490F53","electric_bike","2022-12-06 07:46:51","2022-12-06 07:53:29","Southport Ave & Clybourn Ave","TA1309000030","Cherry Ave & Blackhawk St","18069",41.920757,-87.663727,41.907221,-87.655618,"member"
"175EF4A19F2B50AC","classic_bike","2022-12-29 08:41:14","2022-12-29 08:49:34","Clinton St & Lake St","13021","Fairbanks Ct & Grand Ave","TA1305000003",41.885637,-87.641823,41.8918473721099,-87.6205801963806,"member"
"A36857A5BDE3DBC5","electric_bike","2022-12-19 12:33:25","2022-12-19 12:49:42","Pine Grove Ave & Irving Park Rd","TA1308000022","Michigan Ave & Oak St","13042",41.954308748,-87.648282647,41.90096039,-87.62377664,"member"
"06BA4CA7C8AF188D","classic_bike","2022-12-31 07:54:53","2022-12-31 08:19:44","Lincoln Ave & Waveland Ave","13253","Wells St & Walton St","TA1306000011",41.948797,-87.675278,41.89993001,-87.63443007,"member"
"20C83A8FB0C5E2E2","electric_bike","2022-12-12 08:38:26","2022-12-12 08:45:17","LaSalle St & Jackson Blvd","TA1309000004","Mies van der Rohe Way & Chicago Ave","13338",41.877512813,-87.632013321,41.8969446263708,-87.6217576861382,"member"
"269A820E8F197EB7","classic_bike","2022-12-02 15:26:12","2022-12-02 15:29:01","Ashland Ave & Lake St","13073","Wood St & Hubbard St","13432",41.88592,-87.66717,41.889899,-87.671473,"member"
"D0F8DEFA6306CB8C","electric_bike","2022-12-29 18:09:46","2022-12-29 18:14:14","Southport Ave & Wrightwood Ave","TA1307000113","Sheffield Ave & Fullerton Ave","TA1306000016",41.9287756666667,-87.6638935,41.9256018819,-87.6537080423,"casual"
"8442084649C076AB","classic_bike","2022-12-02 18:11:33","2022-12-02 18:18:47","Southport Ave & Waveland Ave","13235","Pine Grove Ave & Waveland Ave","TA1307000150",41.94815,-87.66394,41.9494727408833,-87.6464527845383,"member"
"868F413F0C3457E6","classic_bike","2022-12-04 15:59:28","2022-12-04 16:07:01","Columbus Dr & Randolph St","13263","Stetson Ave & South Water St","TA1308000029",41.884728,-87.619521,41.886835,-87.62232,"casual"
"A36E29C25E04FC1E","electric_bike","2022-12-08 17:55:26","2022-12-08 17:56:46","Dearborn Pkwy & Delaware Pl","TA1307000128","Dearborn Pkwy & Delaware Pl","TA1307000128",41.8987223333333,-87.6301025,41.898969,-87.629912,"member"
"D70F484BB45C7B33","classic_bike","2022-12-04 13:08:42","2022-12-04 13:12:18","State St & 33rd St","13216","Indiana Ave & 31st St","TA1308000036",41.834734,-87.625813,41.838842,-87.621857,"member"
"A1C94D216B5FC2FB","electric_bike","2022-12-14 12:45:43","2022-12-14 13:00:30","","","Ogden Ave & Chicago Ave","TA1305000020",41.88,-87.63,41.896362458,-87.6540612729,"casual"
"C743848BE490FA14","electric_bike","2022-12-12 16:48:39","2022-12-12 16:52:54","Broadway & Cornelia Ave","13278","","",41.945540071,-87.646459937,41.95,-87.65,"member"
"6A67B6423E13ABCE","electric_bike","2022-12-06 14:59:34","2022-12-06 15:04:03","","","Clinton St & Washington Blvd","WL-012",41.88,-87.63,41.88338,-87.64117,"member"
"9E9FAA300DBA0552","classic_bike","2022-12-13 16:19:38","2022-12-13 16:29:37","Hermitage Ave & Polk St","13080","Aberdeen St & Jackson Blvd","13157",41.871514,-87.669886,41.87772613,-87.65478743,"member"
"86E2C003925A9C73","electric_bike","2022-12-31 23:28:02","2022-12-31 23:28:11","","","","",41.88,-87.65,41.88,-87.65,"casual"
"6DB8BBA4B7329012","electric_bike","2022-12-11 09:49:32","2022-12-11 10:01:56","","","","",41.9,-87.68,41.89,-87.65,"member"
"BAE2A1D2316FA503","electric_bike","2022-12-01 12:38:10","2022-12-01 12:40:27","Halsted St & Polk St","TA1307000121","900 W Harrison St","13028",41.87175715,-87.646615028,41.874754,-87.649807,"member"
"A7C30FB3781092E8","classic_bike","2022-12-01 15:20:24","2022-12-01 15:23:30","Ellis Ave & 60th St","KA1503000014","University Ave & 57th St","KA1503000071",41.78509714636,-87.6010727606,41.791478,-87.599861,"member"
"2F7F1011201F6EAF","electric_bike","2022-12-07 12:40:49","2022-12-07 12:46:15","Desplaines St & Randolph St","15535","","",41.884647489,-87.644507527,41.88,-87.63,"member"
"F5ED8E9D9FC2541E","classic_bike","2022-12-26 23:22:49","2022-12-26 23:54:00","Wabash Ave & Grand Ave","TA1307000117","St. Clair St & Erie St","13016",41.891466,-87.626761,41.8943451374243,-87.6227983832359,"member"
"3D0AFCD107B4B071","electric_bike","2022-12-30 14:47:11","2022-12-30 15:08:02","LaSalle St & Illinois St","13430","Sheffield Ave & Waveland Ave","TA1307000126",41.8909328333333,-87.6317865,41.949399,-87.654529,"member"
"1E3700DAA4821D7D","electric_bike","2022-12-27 18:45:20","2022-12-27 18:49:42","Franklin St & Jackson Blvd","TA1305000025","","",41.877655268,-87.635304332,41.88,-87.65,"member"
"FEC155F9886BFEC1","electric_bike","2022-12-21 16:24:50","2022-12-21 16:30:51","Wood St & Milwaukee Ave","13221","Damen Ave & Charleston St","13288",41.907722235,-87.672594428,41.920082,-87.677855,"casual"
"64D180CA8A3C2ECD","electric_bike","2022-12-26 11:23:37","2022-12-26 11:24:22","Damen Ave & Chicago Ave","13132","","",41.895620346,-87.677079439,41.9,-87.68,"casual"
"2285FF1BB508EEE1","classic_bike","2022-12-16 15:44:28","2022-12-16 16:11:13","Franklin St & Illinois St","RN-","Green St & Washington Blvd","13053",41.8910233102519,-87.6354798674583,41.8831813059739,-87.6487246155739,"member"
"8B9A49C4097CA016","electric_bike","2022-12-18 13:50:34","2022-12-18 14:20:43","","","Dearborn St & Adams St","TA1305000005",41.8,-87.6,41.8793563587,-87.6297910363,"member"
"526FE564FBE23AF8","classic_bike","2022-12-14 19:28:32","2022-12-14 19:34:27","Broadway & Barry Ave","13137","Broadway & Cornelia Ave","13278",41.9375823160063,-87.6440978050232,41.945529,-87.646439,"member"
"898B85CB86900A7D","electric_bike","2022-12-21 18:03:22","2022-12-21 18:16:40","Blue Island Ave & 18th St","13135","","",41.857493281,-87.661604762,41.85,-87.63,"member"
"3B1E8803BAB9F823","classic_bike","2022-12-07 18:09:29","2022-12-07 18:14:10","Sedgwick St & North Ave","TA1307000038","Clark St & Armitage Ave","13146",41.911386,-87.638677,41.918306,-87.636282,"member"
"4CA88FB9F7A84E95","electric_bike","2022-12-05 12:32:19","2022-12-05 12:32:38","Halsted St & 104th St","20125","Halsted St & 104th St","20125",41.7051783333333,-87.6423836666667,41.7051397889324,-87.6424241065979,"casual"
"46E9355D60C09B74","electric_bike","2022-12-12 14:38:09","2022-12-12 14:44:48","Cornell Ave & Hyde Park Blvd","KA1503000007","","",41.802407503,-87.586977959,41.8,-87.59,"casual"
"367A327063635257","classic_bike","2022-12-14 22:10:56","2022-12-14 22:23:29","DuSable Lake Shore Dr & Belmont Ave","TA1309000049","Clarendon Ave & Leland Ave","TA1307000119",41.940775,-87.639192,41.967968,-87.650001,"member"
"25AC8E8473CB9168","electric_bike","2022-12-09 14:14:53","2022-12-09 14:29:23","","","","",41.84,-87.65,41.86,-87.68,"member"
"55E73AE8C86A1B79","electric_bike","2022-12-19 08:54:22","2022-12-19 08:58:33","","","","",41.85,-87.7,41.84,-87.71,"member"
"E187287EC141BA9D","electric_bike","2022-12-06 10:22:09","2022-12-06 10:45:58","","","","",41.97,-87.67,41.97,-87.67,"member"
"D765E4DBA9B87A20","classic_bike","2022-12-05 19:13:10","2022-12-05 19:15:48","Spaulding Ave & Armitage Ave","15650","Kedzie Ave & Palmer Ct","13292",41.9171080347893,-87.7102209627628,41.921525,-87.707322,"member"
"126D9FA43A1329BC","electric_bike","2022-12-29 13:39:02","2022-12-29 15:01:21","","","Keystone Ave & Montrose Ave","KA1504000164",41.93,-87.71,41.96110801623,-87.7289701012,"member"
"B21820177D480D96","electric_bike","2022-12-14 10:19:36","2022-12-14 10:19:42","Damen Ave & Grand Ave","TA1308000006","Damen Ave & Grand Ave","TA1308000006",41.892415404,-87.676927447,41.8923944529627,-87.6768851280212,"member"
"67D11F88A6856210","electric_bike","2022-12-17 16:16:00","2022-12-17 16:30:43","Dearborn St & Erie St","13045","Green St & Randolph St*","chargingstx3",41.8941695,-87.6292001666667,41.8836016572752,-87.6486267149448,"member"
"40426C698A0FD4A0","electric_bike","2022-12-07 21:58:42","2022-12-07 22:01:59","Wells St & Elm St","KA1504000135","Larrabee St & Kingsbury St","TA1306000009",41.903159618,-87.634705424,41.897764,-87.642884,"member"
"34C6EB0C75981644","classic_bike","2022-12-02 12:31:08","2022-12-02 12:39:07","Kingsbury St & Erie St","13265","St. Clair St & Erie St","13016",41.8938080562436,-87.6416972279549,41.8943451374243,-87.6227983832359,"member"
"8875BEB561A49DB0","electric_bike","2022-12-13 18:09:00","2022-12-13 18:27:10","Lincoln Ave & Sunnyside Ave","TA1307000156","Honore St & Division St","TA1305000034",41.962969065,-87.684937596,41.903119,-87.673935,"member"
"98DC59EF6E02626E","classic_bike","2022-12-01 07:37:30","2022-12-01 07:43:12","South Shore Dr & 67th St","KA1503000029","South Shore Dr & 71st St","KA1503000002",41.773643,-87.567514,41.7664094567,-87.5656875719,"member"
"BFFD7DA1721A3A95","classic_bike","2022-12-01 09:05:03","2022-12-01 09:12:43","Financial Pl & Ida B Wells Dr","SL-010","Orleans St & Merchandise Mart Plaza","TA1305000022",41.8750236280333,-87.6330940425396,41.888243,-87.63639,"member"
"7D5F9D44EA815E03","classic_bike","2022-12-02 07:14:12","2022-12-02 07:21:30","Wood St & Chicago Ave","637","Ashland Ave & Blackhawk St","13224",41.895634,-87.672069,41.907066,-87.667252,"member"
"230BF704C1BDD42B","classic_bike","2022-12-21 12:28:40","2022-12-21 12:35:53","Canal St & Taylor St","15550","LaSalle St & Jackson Blvd","TA1309000004",41.870257,-87.639474,41.878166,-87.631929,"member"
"0ACFADE9B0DFB78D","electric_bike","2022-12-02 18:23:52","2022-12-02 18:32:39","Lincoln Ave & Fullerton Ave","TA1309000058","Clark St & Newport St","632",41.9242275,-87.6463268333333,41.94454,-87.654678,"member"
"44573B059E8AB070","classic_bike","2022-12-31 13:20:06","2022-12-31 13:22:39","Ashland Ave & Chicago Ave","13247","Eckhart Park","13289",41.895954357343,-87.6677280664444,41.89637337,-87.66098386,"member"
"AB4EC9743F859830","electric_bike","2022-12-07 07:17:15","2022-12-07 07:36:55","Sheffield Ave & Webster Ave","TA1309000033","Desplaines St & Jackson Blvd","15539",41.9217266666667,-87.6537816666667,41.8781189009123,-87.6439476013184,"member"
"89C5FFFBF9B7BCF5","classic_bike","2022-12-09 06:04:50","2022-12-09 06:13:30","Kingsbury St & Erie St","13265","Dearborn St & Monroe St","TA1305000006",41.8938080562436,-87.6416972279549,41.881319815,-87.6295209193,"member"
"5264E289C26538BB","electric_bike","2022-12-12 01:39:26","2022-12-12 01:57:45","Damen Ave & Pierce Ave","TA1305000041","","",41.909356475,-87.677678227,41.96,-87.72,"casual"
"3F3FD532EB9225F2","electric_bike","2022-12-29 18:47:01","2022-12-29 18:54:21","","","Dayton St & North Ave","13058",41.93,-87.66,41.9105780349,-87.6494219288,"member"
"4B87AF2F2EA8420B","classic_bike","2022-12-06 10:47:04","2022-12-06 11:00:45","Michigan Ave & Pearson St","13034","Wells St & Concord Ln","TA1308000050",41.89766,-87.62351,41.912133,-87.634656,"member"
"CC73EF4C14FF7102","classic_bike","2022-12-01 08:15:22","2022-12-01 08:23:44","Canal St & Monroe St","13056","Columbus Dr & Randolph St","13263",41.88169,-87.63953,41.884728,-87.619521,"member"
"FFCF86F5C6AE249D","classic_bike","2022-12-13 07:04:22","2022-12-13 07:05:15","Canal St & Adams St","13011","Clinton St & Jackson Blvd","638",41.879255,-87.639904,41.8783166118307,-87.6409810781479,"member"
"50457CC764A0580F","electric_bike","2022-12-03 12:51:42","2022-12-03 13:07:28","Mies van der Rohe Way & Chicago Ave","13338","","",41.8973716666667,-87.6217211666667,41.89,-87.65,"casual"
"BF4380DC38A66CDF","classic_bike","2022-12-08 10:32:29","2022-12-09 11:32:23","Princeton Ave & Garfield Blvd","KA1503000013","","",41.794982,-87.633124,NA,NA,"casual"
"A74E8BFECDD35C0B","electric_bike","2022-12-15 14:40:27","2022-12-15 14:46:54","","","Kingsbury St & Erie St","13265",41.88,-87.64,41.8938080562436,-87.6416972279549,"member"
"CD8C2511C230DABC","electric_bike","2022-12-29 17:44:49","2022-12-29 18:04:52","","","","",41.82,-87.7,41.84,-87.67,"member"
"12FECCC1EAE0BCA7","electric_bike","2022-12-06 21:44:34","2022-12-06 21:48:02","Ellis Ave & 55th St","KA1504000076","Ellis Ave & 60th St","KA1503000014",41.7943075,-87.6014788333333,41.78509714636,-87.6010727606,"member"
"B0B6943A2861B2E1","electric_bike","2022-12-04 01:36:25","2022-12-04 01:49:46","Halsted St & Wrightwood Ave","TA1309000061","Honore St & Division St","TA1305000034",41.929147959,-87.649111748,41.903119,-87.673935,"member"
"23988584D1C907A1","classic_bike","2022-12-02 15:46:59","2022-12-02 15:55:33","Wacker Dr & Washington St","KA1503000072","Aberdeen St & Randolph St","18062",41.8831433643902,-87.6372420787811,41.884114,-87.654264,"casual"
"32CE77D011362C9D","classic_bike","2022-12-11 15:22:53","2022-12-11 15:27:47","Wells St & Elm St","KA1504000135","Dearborn St & Erie St","13045",41.903222,-87.634324,41.893992,-87.629318,"member"
"F79309FA7A31C98C","electric_bike","2022-12-04 11:44:11","2022-12-04 11:48:53","McClurg Ct & Erie St","KA1503000041","McClurg Ct & Erie St","KA1503000041",41.894372106,-87.618052363,41.894503,-87.617854,"casual"
"E55278BAA4D5D2A3","electric_bike","2022-12-02 16:53:03","2022-12-02 17:00:07","Dearborn St & Monroe St","TA1305000006","Wabash Ave & Roosevelt Rd","TA1305000002",41.8804551666667,-87.6298358333333,41.867227,-87.625961,"member"
"1A2178ABC7A7B3CC","electric_bike","2022-12-10 10:09:47","2022-12-10 10:16:26","Federal St & Polk St","SL-008","Shedd Aquarium","15544",41.872061253,-87.629489183,41.86722595682,-87.6153553902,"member"
"7344CAF7FFDCC7A8","electric_bike","2022-12-02 15:25:06","2022-12-02 16:04:50","","","Broadway & Sheridan Rd","13323",41.94,-87.73,41.952833,-87.649993,"member"
"5159B77AC897FE72","electric_bike","2022-12-12 08:45:33","2022-12-12 08:57:21","Rush St & Superior St","15530","LaSalle St & Adams St","KA1503000034",41.8952191666667,-87.62641,41.87934437346,-87.6319852213,"member"
"82C2BD99F21D71B1","electric_bike","2022-12-28 12:22:26","2022-12-28 12:40:14","","","","",41.9,-87.64,41.91,-87.68,"member"
"7829B1561086EE1F","classic_bike","2022-12-16 16:13:23","2022-12-16 16:30:23","Ogden Ave & Congress Pkwy","13081","Damen Ave & Division St","13136",41.87501,-87.67328,41.903266,-87.678435,"member"
"E2E744B613C044C7","electric_bike","2022-12-16 06:28:24","2022-12-16 06:40:18","Wabash Ave & Roosevelt Rd","TA1305000002","McClurg Ct & Erie St","KA1503000041",41.8672355,-87.6259676666667,41.894503,-87.617854,"member"
"9A77324473A1F7DA","electric_bike","2022-12-11 14:34:23","2022-12-11 14:42:29","Cottage Grove Ave & 67th St","KA1503000031","Public Rack - Eberhart Ave & 61st St","955",41.773755789,-87.60564971,41.78,-87.61,"member"
"C93B684B2FA48B83","classic_bike","2022-12-08 07:31:51","2022-12-08 07:35:49","Michigan Ave & 18th St","13150","Wabash Ave & Roosevelt Rd","TA1305000002",41.857813,-87.62455,41.867227,-87.625961,"member"
"1D189C158271B4D1","electric_bike","2022-12-20 12:36:40","2022-12-20 12:43:18","","","Greenwood Ave & 47th St","TA1308000002",41.8,-87.62,41.809835,-87.599383,"member"
"BF2438E8471F73DE","electric_bike","2022-12-03 18:34:44","2022-12-03 18:46:37","","","Tripp Ave & 31st St","368.0",41.84,-87.71,41.84,-87.73,"casual"
"D8CD56A6B422F122","docked_bike","2022-12-01 09:34:13","2022-12-01 09:48:10","Lincoln Ave & Addison St","TA1309000050","Drake Ave & Addison St","KA1504000142",41.946176,-87.673308,41.947326,-87.717582,"casual"
"EF784D48816DC27E","electric_bike","2022-12-01 17:27:02","2022-12-01 17:41:04","","","","",42.01,-87.67,41.99,-87.7,"member"
"FA8D50BBBED37348","classic_bike","2022-12-13 07:49:30","2022-12-13 07:56:26","Loomis St & Jackson Blvd","13206","Hermitage Ave & Polk St","13080",41.877945,-87.662007,41.871514,-87.669886,"member"
"1CC263ABD8519C62","electric_bike","2022-12-04 00:07:05","2022-12-04 00:14:24","Broadway & Belmont Ave","13277","","",41.940095544,-87.645423412,41.95,-87.66,"member"
"D05AEF1BF2303354","electric_bike","2022-12-06 17:09:17","2022-12-06 17:14:25","Fairbanks St & Superior St","18003","Millennium Park","13008",41.895532489,-87.620198846,41.8810317,-87.62408432,"member"
"7EAD894E6680798B","electric_bike","2022-12-04 15:04:11","2022-12-04 15:09:27","","","University Ave & 57th St","KA1503000071",41.78,-87.59,41.791478,-87.599861,"casual"
"24F961894949362B","classic_bike","2022-12-30 08:48:31","2022-12-30 08:57:49","Wabash Ave & 9th St","TA1309000010","Canal St & Harrison St","13326",41.870769,-87.625734,41.874255,-87.639573,"member"
"FD9C13179B45613E","electric_bike","2022-12-15 16:26:58","2022-12-15 16:42:00","Ogden Ave & Roosevelt Rd","KA1504000101","Halsted St & Polk St","TA1307000121",41.866510391,-87.684538722,41.87184,-87.64664,"member"
"5129AC632CAE3546","electric_bike","2022-12-03 19:49:05","2022-12-03 22:22:29","Dearborn St & Adams St","TA1305000005","Wabash Ave & Grand Ave","TA1307000117",41.879151821,-87.629455924,41.891466,-87.626761,"member"
"85196239A104C9BA","classic_bike","2022-12-16 21:31:47","2022-12-16 21:44:10","Lincoln Ave & Fullerton Ave","TA1309000058","Clark St & Schiller St","TA1309000024",41.9241610290676,-87.6463803648949,41.907993,-87.631501,"member"
"E99C8ACACC1338B5","classic_bike","2022-12-10 10:47:34","2022-12-10 10:50:13","Halsted St & Maxwell St","TA1309000001","Halsted St & Polk St","TA1307000121",41.864883,-87.647071,41.87184,-87.64664,"casual"
"693E1EDB4E6CC213","electric_bike","2022-12-10 15:41:27","2022-12-10 15:45:27","Lincoln Ave & Waveland Ave","13253","Leavitt St & Addison St","KA1504000143",41.9488375,-87.6752295,41.946655,-87.683359,"member"
"6D53B4D8BA74F028","classic_bike","2022-12-08 08:06:34","2022-12-08 08:29:51","Smith Park","643","Wabash Ave & Grand Ave","TA1307000117",41.892048,-87.689397,41.891466,-87.626761,"member"
"6BB8F9CB0F81E45F","classic_bike","2022-12-10 11:33:09","2022-12-10 12:11:48","Clark St & Leland Ave","TA1309000014","Sheridan Rd & Noyes St (NU)","604",41.9670878391842,-87.667290866375,42.058239,-87.677432,"casual"
"241CEA4B1FEC6721","electric_bike","2022-12-03 11:56:53","2022-12-03 12:05:42","","","Southport Ave & Roscoe St","13071",41.95,-87.65,41.943739,-87.66402,"casual"
"125989BB9BE119E5","electric_bike","2022-12-07 22:55:21","2022-12-07 23:01:04","","","Milwaukee Ave & Grand Ave","13033",41.89,-87.63,41.891578,-87.648384,"casual"
"A8BB30DC397CE1C0","electric_bike","2022-12-04 10:25:28","2022-12-04 10:39:58","Streeter Dr & Grand Ave","13022","Adler Planetarium","13431",41.892277002,-87.611945271,41.866095,-87.607267,"casual"
"96653068FA641067","electric_bike","2022-12-07 17:58:06","2022-12-07 17:59:16","","","","",41.79,-87.59,41.79,-87.59,"casual"
"924A451B6CFC0538","docked_bike","2022-12-31 16:31:54","2022-12-31 16:39:59","LaSalle St & Washington St","13006","Michigan Ave & Madison St","13036",41.882664,-87.63253,41.882134,-87.625125,"casual"
"AB8692806F60EA32","electric_bike","2022-12-12 09:30:39","2022-12-12 09:33:47","Clark St & Bryn Mawr Ave","KA1504000151","Broadway & Ridge Ave","15578",41.98357,-87.6692306666667,41.9840446107,-87.6602738295,"member"
"FB2ACD93648C08D6","classic_bike","2022-12-12 17:47:24","2022-12-12 17:56:18","Halsted St & Clybourn Ave","331","Racine Ave & Wrightwood Ave","TA1309000059",41.909668,-87.648128,41.928887,-87.658971,"member"
"B08D325E87D35029","electric_bike","2022-12-11 05:27:57","2022-12-11 05:37:59","","","","",41.92,-87.65,41.95,-87.66,"member"
"79DD9288B7CC7778","electric_bike","2022-12-09 07:38:19","2022-12-09 07:48:57","Campbell Ave & North Ave","13257","","",41.910508752,-87.689560294,41.92,-87.73,"member"
"38421060B2E22C29","classic_bike","2022-12-05 17:19:11","2022-12-05 17:32:11","State St & Kinzie St","13050","Canal St & Adams St","13011",41.8893754666317,-87.6270765066147,41.879255,-87.639904,"member"
"7D859551AB7289D7","electric_bike","2022-12-04 13:54:33","2022-12-04 14:03:07","Dearborn St & Erie St","13045","Columbus Dr & Randolph St","13263",41.8942285,-87.6291806666667,41.884728,-87.619521,"member"
"29D6740E78AA971A","classic_bike","2022-12-10 21:40:31","2022-12-10 21:48:19","Wells St & Polk St","SL-011","Financial Pl & Ida B Wells Dr","SL-010",41.8727315422631,-87.6335164904594,41.8750236280333,-87.6330940425396,"member"
"2B6F8982CC44183C","electric_bike","2022-12-07 16:21:46","2022-12-07 16:31:24","Hermitage Ave & Polk St","13080","Clinton St & Washington Blvd","WL-012",41.871517181,-87.669954896,41.88338,-87.64117,"member"
"4919910B8757BAEF","classic_bike","2022-12-17 13:05:12","2022-12-17 13:07:32","Sheffield Ave & Willow St","TA1306000032","Bissell St & Armitage Ave*","chargingstx1",41.913688,-87.652855,41.9182955629354,-87.6521833240986,"member"
"94FE6C1F213FECAC","electric_bike","2022-12-08 17:39:08","2022-12-08 17:47:37","Clark St & Elm St","TA1307000039","LaSalle St & Illinois St","13430",41.9026523333333,-87.631669,41.890762,-87.631697,"member"
"2896AC75ABC9A53D","classic_bike","2022-12-03 17:46:11","2022-12-03 17:50:23","Broadway & Waveland Ave","13325","Halsted St & Roscoe St","TA1309000025",41.949074,-87.648636,41.94367,-87.64895,"casual"
"BED65AF1C08459E2","classic_bike","2022-12-05 08:23:42","2022-12-05 08:27:34","Kimbark Ave & 53rd St","TA1309000037","Cornell Ave & Hyde Park Blvd","KA1503000007",41.799568,-87.594747,41.802406,-87.586924,"member"
"CA581850454E2C34","classic_bike","2022-12-19 15:44:29","2022-12-19 15:59:06","Larrabee St & Kingsbury St","TA1306000009","Clark St & Drummond Pl","TA1307000142",41.897764,-87.642884,41.931248,-87.644336,"member"
"A7791EBD9388FEB8","electric_bike","2022-12-26 13:51:04","2022-12-26 13:55:48","Milwaukee Ave & Grand Ave","13033","","",41.8916595,-87.6481468333333,41.89,-87.65,"member"
"F131D5606DC79A32","classic_bike","2022-12-27 16:38:32","2022-12-27 16:39:08","Larrabee St & Kingsbury St","TA1306000009","Larrabee St & Kingsbury St","TA1306000009",41.897764,-87.642884,41.897764,-87.642884,"member"
"6B2601A89D8BC2A8","electric_bike","2022-12-28 08:57:52","2022-12-28 09:00:40","Wacker Dr & Washington St","KA1503000072","Orleans St & Merchandise Mart Plaza","TA1305000022",41.883354306,-87.637175083,41.888243,-87.63639,"member"
"9C39ED7AFE66B6B5","electric_bike","2022-12-06 18:47:39","2022-12-06 18:54:49","Franklin St & Illinois St","RN-","","",41.891131163,-87.635408759,41.9,-87.63,"casual"
"00588B7BF859E1DF","electric_bike","2022-12-02 12:59:40","2022-12-02 13:04:51","Sheridan Rd & Loyola Ave","RP-009","Clark St & Columbia Ave","RP-008",42.0011046666667,-87.6612915,42.00445062934,-87.6724024047,"member"
"2A49076764A7AA1F","electric_bike","2022-12-20 16:38:55","2022-12-20 16:39:51","Narragansett & Wrightwood","314","Narragansett & Wrightwood","314",41.93,-87.79,41.93,-87.79,"member"
"14D8D01707300B7E","electric_bike","2022-12-01 17:30:28","2022-12-01 17:34:06","","","","",41.93,-87.65,41.93,-87.64,"casual"
"4865E7D16EA69839","electric_bike","2022-12-08 15:21:46","2022-12-08 15:27:21","Wells St & Evergreen Ave","TA1308000049","Wells St & Hubbard St","TA1307000151",41.906601906,-87.635233879,41.889906,-87.634266,"member"
"5752D1611BA5E07E","electric_bike","2022-12-04 11:49:00","2022-12-04 11:56:48","Sheffield Ave & Wrightwood Ave","TA1309000023","Racine Ave & Belmont Ave","TA1308000019",41.9287276666667,-87.6538268333333,41.939743,-87.658865,"casual"
"BCC1C812E4C85720","classic_bike","2022-12-11 16:34:15","2022-12-11 16:40:18","Clark St & Montrose Ave","KA1503000022","Clark St & Winnemac Ave","TA1309000035",41.961588,-87.666036,41.973347640473,-87.6678554713726,"member"
"128CD368C797BBEE","electric_bike","2022-12-30 13:53:22","2022-12-30 13:59:11","State St & Harrison St","SL-007","Desplaines St & Jackson Blvd","15539",41.8740166666667,-87.6277266666667,41.8781189009123,-87.6439476013184,"member"
"8F545F425F276A32","classic_bike","2022-12-17 11:39:49","2022-12-17 12:46:15","California Ave & 21st St","13096","Emerald Ave & 31st St","TA1309000055",41.8537957934734,-87.6958228647709,41.838198,-87.645143,"member"
"15FA7627A261474B","electric_bike","2022-12-02 09:02:06","2022-12-02 09:05:00","Damen Ave & Foster Ave","KA1504000149","Damen Ave & Leland Ave","TA1307000158",41.975624,-87.6794676666667,41.967094,-87.679028,"member"
"2B60A4290E7C99A1","electric_bike","2022-12-18 08:23:13","2022-12-18 08:27:31","Dayton St & North Ave","13058","Larrabee St & Division St","KA1504000079",41.9106891666667,-87.6493911666667,41.90348607004,-87.6433534936,"member"
"A3FDB62B43230842","classic_bike","2022-12-08 22:45:05","2022-12-08 22:49:16","Orleans St & Chestnut St (NEXT Apts)","620","LaSalle Dr & Huron St","KP1705001026",41.898203,-87.637536,41.894877,-87.632326,"member"
"3547610F2D449EBD","electric_bike","2022-12-06 21:10:57","2022-12-06 21:14:25","","","Broadway & Cornelia Ave","13278",41.95,-87.65,41.945529,-87.646439,"member"
"FD89B01F57CCB84F","classic_bike","2022-12-09 08:06:12","2022-12-09 08:20:04","Franklin St & Jackson Blvd","TA1305000025","Michigan Ave & 18th St","13150",41.8777079559,-87.6353211408,41.857813,-87.62455,"member"
"5C2D6665F927255A","electric_bike","2022-12-05 16:53:43","2022-12-05 16:56:39","Desplaines St & Jackson Blvd","15539","Clinton St & Washington Blvd","WL-012",41.87829268,-87.644100904,41.88338,-87.64117,"casual"
"97BCD439044743A8","electric_bike","2022-12-02 16:24:43","2022-12-02 16:31:47","Halsted St & Dickens Ave","13192","Elston Ave & Cortland St","TA1305000039",41.9199745,-87.648824,41.9164334291265,-87.666746377945,"member"
"1A96CD11020214A6","classic_bike","2022-12-07 17:31:20","2022-12-07 17:35:03","Sheridan Rd & Irving Park Rd","13063","Broadway & Waveland Ave","13325",41.954245,-87.654406,41.949074,-87.648636,"member"
"D054A5ED481C63D3","electric_bike","2022-12-03 15:50:24","2022-12-03 15:57:49","Wells St & Walton St","TA1306000011","Wells St & Walton St","TA1306000011",41.90001452,-87.634405732,41.89993001,-87.63443007,"member"
"345C1DD1A729D1C2","classic_bike","2022-12-01 15:15:51","2022-12-01 15:18:32","Ogden Ave & Roosevelt Rd","KA1504000101","Western Ave & Fillmore St","644",41.86650148316,-87.68469707,41.868563,-87.686234,"member"
"DB236000C063564C","electric_bike","2022-12-12 07:01:53","2022-12-12 07:02:13","Dearborn St & Erie St","13045","Dearborn St & Erie St","13045",41.894279718,-87.62906611,41.893992,-87.629318,"member"
"16D1D1945F5DCF21","electric_bike","2022-12-19 17:03:38","2022-12-19 17:08:36","State St & 33rd St","13216","Rhodes Ave & 32nd St","13215",41.834695339,-87.625754356,41.836208,-87.613533,"member"
"4D9CC14050DF3B07","electric_bike","2022-12-08 08:37:01","2022-12-08 08:51:13","Halsted St & Clybourn Ave","331","Clinton St & Madison St","TA1305000032",41.9097016666667,-87.6481081666667,41.8827519656856,-87.641190290451,"member"
"293CD6426E397AAA","classic_bike","2022-12-20 12:18:16","2022-12-20 14:27:11","Morgan St & Lake St*","chargingstx4","State St & Pearson St","TA1307000061",41.8854917062691,-87.6522892713547,41.897448,-87.628722,"casual"
"1680592EA31076EC","classic_bike","2022-12-01 17:24:29","2022-12-01 17:27:17","Ashland Ave & Division St","13061","Wood St & Milwaukee Ave","13221",41.90345,-87.667747,41.907655,-87.672552,"member"
"25311513FDE76B26","classic_bike","2022-12-21 16:01:32","2022-12-21 16:14:59","Dearborn St & Monroe St","TA1305000006","Loomis St & Lexington St","13332",41.881319815,-87.6295209193,41.8722287322403,-87.6613638550043,"member"
"3883D4D8AC23516A","electric_bike","2022-12-31 19:54:53","2022-12-31 20:00:08","","","Greenview Ave & Fullerton Ave","TA1307000001",41.94,-87.66,41.92533,-87.6658,"member"
"3E5E10E2D62C42B0","classic_bike","2022-12-11 10:51:10","2022-12-11 10:52:21","Wells St & Polk St","SL-011","Financial Pl & Ida B Wells Dr","SL-010",41.8727315422631,-87.6335164904594,41.8750236280333,-87.6330940425396,"member"
"15AF7A4EBB9C1BD0","classic_bike","2022-12-12 08:40:27","2022-12-12 08:42:59","Pine Grove Ave & Waveland Ave","TA1307000150","Pine Grove Ave & Irving Park Rd","TA1308000022",41.9494727408833,-87.6464527845383,41.954383,-87.648043,"member"
"C86B995BC9D2525C","electric_bike","2022-12-04 15:10:30","2022-12-04 15:10:50","Calumet Ave & 18th St","13102","Calumet Ave & 18th St","13102",41.8577075,-87.619468,41.8576175529375,-87.6194107532501,"member"
"435C95C74B886FDC","electric_bike","2022-12-06 17:10:17","2022-12-06 17:30:35","LaSalle St & Illinois St","13430","Racine Ave & Washington Blvd","654",41.890884,-87.6319081666667,41.883073,-87.656952,"casual"
"F1075BE9A0C89F0E","electric_bike","2022-12-07 14:07:45","2022-12-07 14:18:21","Elizabeth St & Fulton St","13197","Wells St & Hubbard St","TA1307000151",41.8868736666667,-87.6595655,41.889906,-87.634266,"member"
"C17093D4DBFD63B0","classic_bike","2022-12-08 13:48:45","2022-12-08 13:52:51","Harper Ave & 59th St","KA1503000070","University Ave & 57th St","KA1503000071",41.78794281287,-87.5883151702,41.791478,-87.599861,"member"
"282FD75D4A6EC24C","electric_bike","2022-12-19 17:36:22","2022-12-19 17:38:10","Clinton St & Jackson Blvd","638","Clinton St & Washington Blvd","WL-012",41.878325701,-87.641295195,41.88338,-87.64117,"member"
"ADA16951BDAE7CEF","electric_bike","2022-12-08 20:24:53","2022-12-08 20:34:30","Broadway & Barry Ave","13137","Lincoln Ave & Fullerton Ave","TA1309000058",41.937734,-87.6440718333333,41.9241610290676,-87.6463803648949,"casual"
"598C8B8386145525","electric_bike","2022-12-31 18:25:11","2022-12-31 18:30:37","","","","",41.95,-87.66,41.97,-87.67,"member"
"4243FCFEA01F5A56","electric_bike","2022-12-29 19:51:58","2022-12-29 19:52:01","","","","",41.89,-87.62,41.89,-87.62,"member"
"89914158926ADD2D","electric_bike","2022-12-13 13:03:56","2022-12-13 13:07:15","","","Kedzie Ave & Milwaukee Ave","13085",41.93,-87.72,41.929567,-87.707857,"member"
"E08FF077B4F6EC09","classic_bike","2022-12-01 17:40:50","2022-12-01 17:58:27","Michigan Ave & Pearson St","13034","Noble St & Milwaukee Ave","13290",41.89766,-87.62351,41.90068,-87.6626,"member"
"A997E23ECB234EEE","electric_bike","2022-12-15 15:00:49","2022-12-15 15:04:03","Canal St & Jackson Blvd","13138","Canal St & Taylor St","15550",41.877127,-87.6392716666667,41.870257,-87.639474,"member"
"838759AB27BFBE7A","electric_bike","2022-12-01 11:15:19","2022-12-01 11:21:53","Burling St & Diversey Pkwy","TA1309000036","Clark St & Grace St","TA1307000127",41.9331468333333,-87.6478475,41.95078,-87.659172,"member"
"11032D862804C206","classic_bike","2022-12-10 07:26:25","2022-12-10 07:35:45","Shedd Aquarium","15544","DuSable Lake Shore Dr & Monroe St","13300",41.86722595682,-87.6153553902,41.880958,-87.616743,"member"
"E6F56A1DD28ABD37","classic_bike","2022-12-10 15:23:51","2022-12-10 15:38:23","Eckhart Park","13289","Aberdeen St & Jackson Blvd","13157",41.89637337,-87.66098386,41.87772613,-87.65478743,"casual"
"2668FBA065CD2F70","electric_bike","2022-12-08 15:19:59","2022-12-08 15:22:56","","","","",41.91,-87.69,41.9,-87.69,"casual"
"D83979676F4B53F7","electric_bike","2022-12-19 07:44:25","2022-12-19 07:53:09","","","Dearborn St & Adams St","TA1305000005",41.9,-87.63,41.8793563587,-87.6297910363,"member"
"64D1D5BF60C35D6B","electric_bike","2022-12-18 15:41:47","2022-12-18 15:55:18","Wells St & Elm St","KA1504000135","","",41.903100252,-87.634623528,41.87,-87.63,"casual"
"761BBB86F9F92ED3","classic_bike","2022-12-06 18:55:11","2022-12-06 19:11:03","Morgan St & Lake St*","chargingstx4","Racine Ave & 18th St","13164",41.8854917062691,-87.6522892713547,41.858166,-87.656495,"casual"
"2D0A13F740356DB0","electric_bike","2022-12-12 18:11:56","2022-12-12 18:21:18","Wabash Ave & Wacker Pl","TA1307000131","Clark St & Lincoln Ave","13179",41.886997938,-87.626252413,41.915689,-87.6346,"member"
"12CBAFE02EE50918","classic_bike","2022-12-17 18:17:34","2022-12-17 18:29:02","Cottage Grove Ave & 51st St","TA1309000067","Lake Park Ave & 56th St","TA1309000063",41.803038,-87.606615,41.793242,-87.587782,"member"
"07468CBBDEEC4B60","electric_bike","2022-12-19 08:19:38","2022-12-19 08:30:58","Western Ave & Grace St","431","Ravenswood Ave & Lawrence Ave","TA1309000066",41.95,-87.69,41.96909,-87.674237,"member"
"7F0FD1FF7BA9067D","electric_bike","2022-12-20 19:52:00","2022-12-20 20:01:45","Mies van der Rohe Way & Chestnut St","15529","","",41.898958802,-87.622553229,41.89,-87.62,"casual"
"243A2602CC146690","electric_bike","2022-12-01 07:08:16","2022-12-01 07:16:50","Clinton St & Washington Blvd","WL-012","St. Clair St & Erie St","13016",41.883468032,-87.641483307,41.8943451374243,-87.6227983832359,"member"
"8C3AB90CB482FF4B","classic_bike","2022-12-28 06:54:04","2022-12-28 07:02:53","Sheridan Rd & Buena Ave","TA1309000027","Ashland Ave & Belle Plaine Ave","13249",41.958494,-87.654966,41.956057,-87.668835,"member"
"5E909C19072CCFD0","electric_bike","2022-12-15 08:14:47","2022-12-15 08:15:14","","","","",41.89,-87.64,41.89,-87.64,"member"
"FF198E6AC91DC965","classic_bike","2022-12-03 19:06:57","2022-12-03 19:15:30","Halsted St & Willow St","TA1307000166","Wells St & Evergreen Ave","TA1308000049",41.913865,-87.648755,41.906724,-87.63483,"member"
"68277DBAAE1225B2","classic_bike","2022-12-04 13:04:54","2022-12-04 13:53:27","Cityfront Plaza Dr & Pioneer Ct","13427","Fairbanks Ct & Grand Ave","TA1305000003",41.890573,-87.622072,41.8918473721099,-87.6205801963806,"member"
"BBA6D292599CFF59","classic_bike","2022-12-19 14:29:09","2022-12-19 14:29:48","LaSalle St & Jackson Blvd","TA1309000004","LaSalle St & Jackson Blvd","TA1309000004",41.878166,-87.631929,41.878166,-87.631929,"casual"
"22327428EE9E4409","classic_bike","2022-12-02 17:58:32","2022-12-02 18:11:17","Clark St & Leland Ave","TA1309000014","Clark St & Newport St","632",41.9670878391842,-87.667290866375,41.94454,-87.654678,"member"
"B66F3DEC433E07FF","electric_bike","2022-12-01 15:36:23","2022-12-01 15:42:00","Clinton St & Lake St","13021","","",41.885455,-87.6420778333333,41.88,-87.65,"member"
"5EE23855A7E1E02B","classic_bike","2022-12-09 11:44:50","2022-12-09 12:32:10","Racine Ave & 35th St","15446","Milwaukee Ave & Grand Ave","13033",41.830688564721,-87.6562106609344,41.891578,-87.648384,"member"
"7071C1BC0320E097","classic_bike","2022-12-20 17:44:27","2022-12-20 17:59:41","Walsh Park","18067","California Ave & Cortez St","17660",41.91461,-87.667968,41.900363,-87.696704,"member"
"C7DC1E3289BF275A","classic_bike","2022-12-12 16:07:51","2022-12-12 16:13:57","Clark St & Wellington Ave","TA1307000136","Clark St & Newport St","632",41.9364968219,-87.6475386582,41.94454,-87.654678,"member"
"C188585576C32AB6","electric_bike","2022-12-13 14:03:50","2022-12-13 14:07:09","","","Harlem & Irving Park","326",41.95,-87.81,41.95,-87.81,"casual"
"4C4A7E8664007A8C","classic_bike","2022-12-28 12:01:38","2022-12-28 12:05:41","Clark St & Ida B Wells Dr","TA1305000009","LaSalle St & Washington St","13006",41.8759326655,-87.6305845355,41.882664,-87.63253,"member"
"10C4BC6EBB171240","electric_bike","2022-12-07 16:53:41","2022-12-07 16:58:25","Carpenter St & Huron St","13196","","",41.894591212,-87.653483629,41.9,-87.66,"member"
"A55AC8B0636E8490","classic_bike","2022-12-05 17:47:24","2022-12-05 17:56:22","Wells St & Huron St","TA1306000012","Wells St & Concord Ln","TA1308000050",41.894722,-87.634362,41.912133,-87.634656,"member"
"0FF2ACB5F986ABC8","classic_bike","2022-12-09 15:25:21","2022-12-09 15:30:55","State St & 33rd St","13216","Indiana Ave & 31st St","TA1308000036",41.834734,-87.625813,41.838842,-87.621857,"member"
"6B635F0B0082D505","electric_bike","2022-12-26 14:11:59","2022-12-26 14:36:41","","","","",41.97,-87.67,41.97,-87.67,"member"
"AA59AB099BAA64D3","electric_bike","2022-12-16 08:24:30","2022-12-16 08:31:51","","","Southport Ave & Waveland Ave","13235",41.94,-87.65,41.94815,-87.66394,"member"
"38F2F84AC7BCCA3B","classic_bike","2022-12-04 18:26:48","2022-12-04 18:32:29","Bissell St & Armitage Ave*","chargingstx1","Halsted St & Clybourn Ave","331",41.9182955629354,-87.6521833240986,41.909668,-87.648128,"member"
"76319E53199BC48A","electric_bike","2022-12-29 23:36:55","2022-12-29 23:39:48","Franklin St & Chicago Ave","13017","Wells St & Elm St","KA1504000135",41.896862507,-87.635634422,41.903222,-87.634324,"member"
"2A6888766375CF82","electric_bike","2022-12-06 08:27:31","2022-12-06 08:37:08","Wood St & Hubbard St","13432","Clinton St & Washington Blvd","WL-012",41.8898083333333,-87.6715278333333,41.88338,-87.64117,"member"
"21B9C35BB05420B7","classic_bike","2022-12-06 18:29:58","2022-12-06 18:42:35","Columbus Dr & Randolph St","13263","Dearborn Pkwy & Delaware Pl","TA1307000128",41.884728,-87.619521,41.898969,-87.629912,"member"
"BE8018B5F690324D","classic_bike","2022-12-11 10:53:54","2022-12-11 11:19:39","Western Ave & Winnebago Ave","13068","Rush St & Cedar St","KA1504000133",41.91552,-87.687022,41.90230870122,-87.627690528,"member"
"61A95CBA0229CFDF","electric_bike","2022-12-14 15:12:15","2022-12-14 15:12:35","Clark St & Wrightwood Ave","TA1305000014","Clark St & Wrightwood Ave","TA1305000014",41.929582834,-87.643113732,41.929546,-87.643118,"member"
"B3AA80C919D47A93","classic_bike","2022-12-13 12:26:56","2022-12-13 12:31:30","Throop St & Taylor St","13139","Paulina St & Flournoy St","KA1504000104",41.868968,-87.659141,41.8730610878979,-87.6691348850727,"member"
"083A5EFBFB8CA303","electric_bike","2022-12-06 14:03:02","2022-12-06 14:14:23","Clinton St & Washington Blvd","WL-012","Ashland Ave & Division St","13061",41.8831001666667,-87.6413103333333,41.90345,-87.667747,"casual"
"D68DE7E530BBCB99","classic_bike","2022-12-02 16:43:02","2022-12-02 16:54:20","Wolcott (Ravenswood) Ave & Montrose Ave","TA1307000144","Broadway & Wilson Ave","13074",41.961406,-87.676169,41.965221,-87.658139,"casual"
"47E9613CC12BF6A8","classic_bike","2022-12-31 12:56:32","2022-12-31 13:12:28","Broadway & Argyle St","13108","Washtenaw Ave & Lawrence Ave","KA1504000080",41.973815,-87.65966,41.968987,-87.696027,"member"
"4E6F1AFD0345F94D","electric_bike","2022-12-21 14:30:41","2022-12-21 14:37:59","Dayton St & North Ave","13058","Clark St & Wrightwood Ave","TA1305000014",41.9105466666667,-87.6494673333333,41.929546,-87.643118,"member"
"472390215699C6DA","docked_bike","2022-12-01 17:39:51","2022-12-01 17:48:19","Damen Ave & Melrose Ave","13143","Greenview Ave & Diversey Pkwy","13294",41.9406,-87.6785,41.93259,-87.665936,"casual"
"5F44EC1240B410D5","electric_bike","2022-12-02 23:41:33","2022-12-02 23:48:13","Ritchie Ct & Banks St","KA1504000134","Dearborn St & Erie St","13045",41.905750036,-87.626378775,41.893992,-87.629318,"casual"
"364635C6D3D8F868","classic_bike","2022-12-19 16:29:55","2022-12-19 16:41:35","Rush St & Hubbard St","KA1503000044","Clinton St & Washington Blvd","WL-012",41.890173,-87.626185,41.88338,-87.64117,"member"
"D3489860CAC3858C","classic_bike","2022-12-01 16:52:53","2022-12-01 16:56:55","University Ave & 57th St","KA1503000071","Ellis Ave & 60th St","KA1503000014",41.791478,-87.599861,41.78509714636,-87.6010727606,"casual"
"110772E34576BA84","classic_bike","2022-12-18 14:20:45","2022-12-18 14:32:33","Kingsbury St & Kinzie St","KA1503000043","Green St & Madison Ave*","chargingstx07",41.88917683258,-87.6385057718,41.8818273765714,-87.6488319039345,"member"
"1671528C8FAC8EBB","electric_bike","2022-12-26 12:48:31","2022-12-26 12:50:26","Clarendon Ave & Junior Ter","13389","Clarendon Ave & Junior Ter","13389",41.9610208333333,-87.6494396666667,41.961004,-87.649603,"member"
"FA4DDD9200CFC0F2","electric_bike","2022-12-12 00:19:07","2022-12-12 00:28:57","Broadway & Barry Ave","13137","Clark St & Armitage Ave","13146",41.9376891666667,-87.6440461666667,41.918306,-87.636282,"casual"
"495B4E5E5D438F9E","electric_bike","2022-12-11 19:19:29","2022-12-11 19:23:14","Broadway & Wilson Ave","13074","Sheridan Rd & Argyle St","13059",41.96519,-87.6582113333333,41.9732868202598,-87.6547595858574,"member"
"CB458287508F41BF","electric_bike","2022-12-15 10:29:31","2022-12-15 10:50:13","","","Franklin St & Illinois St","RN-",41.9,-87.63,41.8910233102519,-87.6354798674583,"member"
"B4E8FDB1E27848C1","docked_bike","2022-12-09 10:56:52","2022-12-09 13:29:49","Paulina St & Howard St","515","Sheffield Ave & Waveland Ave","TA1307000126",42.019159,-87.673573,41.949399,-87.654529,"casual"
"572AB81AD694DD8B","classic_bike","2022-12-12 19:53:35","2022-12-12 20:24:27","Clark St & Newport St","632","Clarendon Ave & Gordon Ter","13379",41.94454,-87.654678,41.9578665241517,-87.6495051383972,"member"
"2607A69A96067435","electric_bike","2022-12-10 21:13:53","2022-12-10 21:20:09","Michigan Ave & 18th St","13150","Wabash Ave & Roosevelt Rd","TA1305000002",41.85775423,-87.624526143,41.867227,-87.625961,"casual"
"D7883B4E0F989750","electric_bike","2022-12-09 18:51:27","2022-12-09 18:54:37","Rush St & Cedar St","KA1504000133","Mies van der Rohe Way & Chestnut St","15529",41.90235281,-87.627682686,41.8985866514,-87.6219152258,"member"
"55FF3E4515B1D6DD","electric_bike","2022-12-08 10:02:26","2022-12-08 10:09:22","Racine Ave & Congress Pkwy","TA1306000025","Green St & Randolph St*","chargingstx3",41.874647617,-87.657042146,41.8836016572752,-87.6486267149448,"member"
"B813798FE84D4A33","classic_bike","2022-12-30 06:20:23","2022-12-30 06:32:53","Fairbanks Ct & Grand Ave","TA1305000003","Clinton St & Madison St","TA1305000032",41.8918473721099,-87.6205801963806,41.8827519656856,-87.641190290451,"member"
"0D9C88CC95B537FB","electric_bike","2022-12-06 18:42:35","2022-12-06 18:57:15","Wells St & Concord Ln","TA1308000050","Sangamon St & Lake St","TA1306000015",41.912124515,-87.634953022,41.8857792524043,-87.6510246098041,"member"
"355C07116F619004","classic_bike","2022-12-07 14:17:42","2022-12-07 14:24:24","Ashland Ave & 13th St","13354","Halsted St & Roosevelt Rd","TA1305000017",41.865234,-87.666507,41.867324,-87.648625,"member"
"12DB1FC0B5A0BF91","classic_bike","2022-12-29 16:12:16","2022-12-29 16:30:37","McClurg Ct & Erie St","KA1503000041","Calumet Ave & 18th St","13102",41.894503,-87.617854,41.8576175529375,-87.6194107532501,"member"
"7158278AFEA30725","electric_bike","2022-12-10 14:00:20","2022-12-10 14:01:10","State St & Chicago Ave","21544","State St & Chicago Ave","21544",41.896603465,-87.628706336,41.8966172004075,-87.628578543663,"member"
"6DDC8512D5D0EECA","electric_bike","2022-12-05 17:19:24","2022-12-05 17:30:24","Cherry Ave & Blackhawk St","18069","Green St & Madison St","TA1307000120",41.90723002,-87.655748248,41.8818593280382,-87.6492637395859,"member"
"3FEC13441650687E","electric_bike","2022-12-17 18:09:40","2022-12-17 18:11:32","Damen Ave & Pierce Ave","TA1305000041","","",41.909404397,-87.677654624,41.91,-87.68,"casual"
"A1AB2742301A227E","classic_bike","2022-12-28 20:24:46","2022-12-28 20:48:23","Wood St & 35th St","KA1503000066","Archer (Damen) Ave & 37th St","18022",41.83010465416,-87.6702983089,41.826712,-87.683144,"casual"
"136358B64F1A7FE3","electric_bike","2022-12-03 18:43:50","2022-12-03 18:49:52","Wilton Ave & Belmont Ave","TA1307000134","Lincoln Ave & Belmont Ave (Temp)","TA1309000042",41.9400535,-87.6529818333333,41.9395316198226,-87.6711143553257,"casual"
"590CD0952F695F46","electric_bike","2022-12-27 13:52:25","2022-12-27 13:57:42","Meade Ave & Diversey Ave","353","Public Rack - Lockwood Ave & Diversey Ave","964",41.93,-87.78,41.93,-87.76,"casual"
"0CAFD317BD293B69","classic_bike","2022-12-02 18:48:20","2022-12-02 19:09:33","Daley Center Plaza","TA1306000010","Wabash Ave & 16th St","SL-012",41.884241,-87.629634,41.860384,-87.625813,"casual"
"D25EFAE5FAB48377","electric_bike","2022-12-20 11:03:39","2022-12-20 11:07:27","Mozart St & Jackson Blvd","418","Western Ave & Monroe St","15667",41.88,-87.7,41.8797877089,-87.686112808,"member"
"75BC5E841F335DAB","electric_bike","2022-12-07 13:57:14","2022-12-07 14:03:17","Shedd Aquarium","15544","DuSable Lake Shore Dr & Monroe St","13300",41.867246389,-87.615430713,41.880958,-87.616743,"casual"
"20D0F0F87D4B4324","classic_bike","2022-12-15 13:54:34","2022-12-15 14:03:05","Clark St & Lincoln Ave","13179","Bissell St & Armitage Ave*","chargingstx1",41.915689,-87.6346,41.9182955629354,-87.6521833240986,"casual"
"848AD342E284F460","electric_bike","2022-12-07 14:47:01","2022-12-07 14:54:33","Kimbark Ave & 53rd St","TA1309000037","Ellis Ave & 58th St","TA1309000011",41.79957509,-87.594691277,41.788746,-87.601334,"member"
"69AC2C88F94CBD9F","electric_bike","2022-12-03 23:03:45","2022-12-03 23:13:40","","","Sheridan Rd & Noyes St (NU)","604",42.05,-87.67,42.058239,-87.677432,"casual"
"E474D8C908E8C16E","electric_bike","2022-12-31 14:55:50","2022-12-31 15:02:28","Clark St & Winnemac Ave","TA1309000035","Sheridan Rd & Buena Ave","TA1309000027",41.973354816,-87.667797685,41.958494,-87.654966,"member"
"E380C1FCB3A35105","classic_bike","2022-12-11 10:26:23","2022-12-11 10:31:18","Dearborn St & Erie St","13045","Franklin St & Chicago Ave","13017",41.893992,-87.629318,41.8967469730938,-87.6356676220894,"member"
"570FC6C045FDDAA9","electric_bike","2022-12-12 08:41:59","2022-12-12 08:58:13","Wells St & Concord Ln","TA1308000050","","",41.9120728333333,-87.6348285,41.88,-87.64,"member"
"47187E5B7AE6114D","electric_bike","2022-12-03 00:05:53","2022-12-03 00:09:22","Halsted St & Maxwell St","TA1309000001","900 W Harrison St","13028",41.8648281666667,-87.6470375,41.874754,-87.649807,"casual"
"C6AE1BC3C1A8F1E2","electric_bike","2022-12-17 19:49:18","2022-12-17 19:53:26","Wabash Ave & Adams St","KA1503000015","Financial Pl & Ida B Wells Dr","SL-010",41.87934339,-87.625737071,41.8750236280333,-87.6330940425396,"casual"
"E75274324D781235","classic_bike","2022-12-12 12:23:37","2022-12-12 12:42:33","Pine Grove Ave & Waveland Ave","TA1307000150","Pine Grove Ave & Waveland Ave","TA1307000150",41.9494727408833,-87.6464527845383,41.9494727408833,-87.6464527845383,"member"
"4664638CCDC1D5DF","classic_bike","2022-12-13 14:36:34","2022-12-13 15:05:10","Broadway & Sheridan Rd","13323","Knox Ave & Montrose Ave","592",41.952833,-87.649993,41.960631,-87.745359,"member"
"2B34CEE7A8935397","electric_bike","2022-12-13 07:35:05","2022-12-13 07:35:08","Campbell Ave & Irving Park Rd","439","Campbell Ave & Irving Park Rd","439",41.95,-87.69,41.95,-87.69,"casual"
"D0677FACF2032755","electric_bike","2022-12-07 19:56:33","2022-12-07 20:04:00","","","Damen Ave & Sunnyside Ave","TA1309000012",41.97,-87.7,41.96325,-87.679258,"casual"
"A15113E96523DCD1","classic_bike","2022-12-01 09:49:49","2022-12-01 09:54:40","Rush St & Superior St","15530","Wells St & Huron St","TA1306000012",41.89576474564,-87.6259080327,41.894722,-87.634362,"member"
"389AA82B9B59344F","classic_bike","2022-12-21 13:56:13","2022-12-21 14:04:24","Clark St & Elm St","TA1307000039","Clark St & Lincoln Ave","13179",41.902973,-87.63128,41.915689,-87.6346,"member"
"F0E4F9A129380FD2","electric_bike","2022-12-15 17:02:24","2022-12-15 17:12:01","Rush St & Cedar St","KA1504000133","","",41.9028125,-87.6280525,41.88,-87.62,"member"
"49B184F8093A2762","electric_bike","2022-12-02 23:44:35","2022-12-02 23:49:02","","","","",41.95,-87.7,41.96,-87.71,"member"
"16EACF5300A8E7E5","electric_bike","2022-12-12 17:21:41","2022-12-12 18:03:57","Elston Ave & Cortland St","TA1305000039","Walsh Park","18067",41.9164141666667,-87.6667646666667,41.91461,-87.667968,"casual"
"8ADF653F88CBE814","electric_bike","2022-12-12 18:42:24","2022-12-12 18:42:58","","","Broadway & Cornelia Ave","13278",41.95,-87.65,41.945529,-87.646439,"member"
"5C4E34EF952E27F7","classic_bike","2022-12-03 08:08:50","2022-12-03 08:25:31","Racine Ave & 18th St","13164","Burnham Harbor","15545",41.858166,-87.656495,41.857411787074,-87.6137915253639,"casual"
"AC724E63FEBD9370","classic_bike","2022-12-27 11:01:10","2022-12-27 11:06:59","McClurg Ct & Ohio St","TA1306000029","State St & Kinzie St","13050",41.8925921197097,-87.6172891259193,41.8893754666317,-87.6270765066147,"member"
"63739DDE263B6254","docked_bike","2022-12-31 15:08:16","2022-12-31 16:06:11","Field Museum","13029","Columbus Dr & Randolph St","13263",41.865312,-87.617867,41.884728,-87.619521,"casual"
"1097C0FDC1E939EB","classic_bike","2022-12-30 18:21:06","2022-12-30 19:08:16","Winchester (Ravenswood) Ave & Balmoral Ave","KA1504000147","Ravenswood Ave & Lawrence Ave","TA1309000066",41.979762,-87.67753,41.96909,-87.674237,"casual"
"909D4B4167B47F74","classic_bike","2022-12-06 19:00:54","2022-12-06 19:07:11","Ellis Ave & 60th St","KA1503000014","Ellis Ave & 53rd St","KA1503000052",41.78509714636,-87.6010727606,41.79933626261,-87.6009581145,"member"
"BD81C9D13284B24D","classic_bike","2022-12-11 14:23:04","2022-12-11 14:29:32","Clark St & Elm St","TA1307000039","DuSable Lake Shore Dr & North Blvd","LF-005",41.902973,-87.63128,41.911722,-87.626804,"member"
"3A761070B95BD1D9","electric_bike","2022-12-21 18:48:13","2022-12-21 18:51:22","Aberdeen St & Monroe St","13156","Jefferson St & Monroe St","WL-011",41.880458713,-87.655719995,41.8803296336346,-87.6427459716797,"member"
"EA6B69CFAA208A9A","electric_bike","2022-12-04 14:01:32","2022-12-04 14:08:39","Franklin St & Chicago Ave","13017","Sedgwick St & North Ave","TA1307000038",41.896924376,-87.635508299,41.911386,-87.638677,"casual"
"A923C61B300180A5","electric_bike","2022-12-09 11:48:13","2022-12-09 11:57:51","Seeley Ave & Roscoe St","13144","N Southport Ave & W Newport Ave","20257.0",41.9433428333333,-87.679628,41.94,-87.66,"member"
"B4EA20156162F019","classic_bike","2022-12-08 15:08:08","2022-12-08 15:15:30","Orleans St & Merchandise Mart Plaza","TA1305000022","Wells St & Institute Pl","22001",41.888243,-87.63639,41.8973798607232,-87.6344203948975,"member"
"82299ABB7FF0D303","electric_bike","2022-12-05 17:52:34","2022-12-05 18:03:30","Halsted St & Wrightwood Ave","TA1309000061","Sheffield Ave & Waveland Ave","TA1307000126",41.9292231666667,-87.6491255,41.949399,-87.654529,"member"
"5C9DFE5C33012923","electric_bike","2022-12-07 16:59:17","2022-12-07 17:07:51","Canal St & Adams St","13011","","",41.879181266,-87.639857292,41.87,-87.64,"member"
