"ride_id","rideable_type","started_at","ended_at","start_station_name","start_station_id","end_station_name","end_station_id","start_lat","start_lng","end_lat","end_lng","member_casual"
"F04D7E18836F1836","classic_bike","2023-01-31 18:17:12","2023-01-31 18:56:33","Dearborn St & Van Buren St","624","Lincoln Ave & Belmont Ave (Temp)","TA1309000042",41.876268,-87.629155,41.9395316198226,-87.6711143553257,"member"
"65E9DF625C9479F9","electric_bike","2023-01-14 18:56:55","2023-01-14 19:06:32","California Ave & Altgeld St","15646","","",41.926662922,-87.697748661,41.92,-87.71,"casual"
"DBED13717BAC3087","classic_bike","2023-01-04 19:00:20","2023-01-04 19:08:22","Lincoln Ave & Diversey Pkwy","TA1307000064","Larrabee St & Webster Ave","13193",41.932225,-87.658617,41.921822,-87.64414,"member"
"61FD63B0A7D5DCBB","electric_bike","2023-01-27 13:43:49","2023-01-27 13:49:18","","","State St & Randolph St","TA1305000029",41.88,-87.63,41.8846210725794,-87.6278342306614,"member"
"F33ECEB909FB6016","electric_bike","2023-01-12 07:02:04","2023-01-12 07:07:19","Eckhart Park","13289","Kingsbury St & Kinzie St","KA1503000043",41.896500468,-87.661002517,41.88917683258,-87.6385057718,"member"
"418F8E1E42BF7816","electric_bike","2023-01-16 20:04:21","2023-01-16 20:12:49","Racine Ave & Congress Pkwy","TA1306000025","Canal St & Jackson Blvd","13138",41.874606609,-87.657157302,41.877245,-87.639366,"member"
"77311F1B4202C9E7","classic_bike","2023-01-31 18:52:07","2023-01-31 19:03:40","Morgan St & Lake St*","chargingstx4","Damen Ave & Grand Ave","TA1308000006",41.8854917062691,-87.6522892713547,41.8923944529627,-87.6768851280212,"member"
"E5CE9626D7D8234B","classic_bike","2023-01-21 14:07:28","2023-01-21 14:16:19","Broadway & Sheridan Rd","13323","Sheridan Rd & Lawrence Ave","TA1309000041",41.952833,-87.649993,41.969517,-87.654691,"member"
"416267724F2CC177","classic_bike","2023-01-21 21:39:04","2023-01-21 22:09:57","Lincoln Ave & Fullerton Ave","TA1309000058","Lincoln Ave & Sunnyside Ave","TA1307000156",41.9241610290676,-87.6463803648949,41.963004,-87.684781,"member"
"DA1F569C42E5A1FF","classic_bike","2023-01-24 20:08:14","2023-01-24 20:13:48","LaSalle St & Illinois St","13430","Wells St & Elm St","KA1504000135",41.890762,-87.631697,41.903222,-87.634324,"member"
"E61F7144820758C3","classic_bike","2023-01-10 09:00:29","2023-01-10 09:15:46","Clinton St & Roosevelt Rd","WL-008","Michigan Ave & Madison St","13036",41.8671177825,-87.6410879593,41.882134,-87.625125,"member"
"7D164AB842410D63","electric_bike","2023-01-26 00:36:46","2023-01-26 00:43:06","","","MLK Jr Dr & 29th St","TA1307000139",41.83,-87.61,41.842052,-87.617,"member"
"46DD1D1F7388659E","classic_bike","2023-01-11 13:24:23","2023-01-11 13:30:25","Shedd Aquarium","15544","Michigan Ave & 8th St","623",41.86722595682,-87.6153553902,41.872773,-87.623981,"casual"
"5C43E0C25BB41B53","classic_bike","2023-01-10 12:12:27","2023-01-10 12:16:41","Sheffield Ave & Webster Ave","TA1309000033","Southport Ave & Clybourn Ave","TA1309000030",41.92154,-87.653818,41.920771,-87.663712,"member"
"50E87E6318F4BCF5","classic_bike","2023-01-09 07:42:10","2023-01-09 07:44:12","Burling St & Diversey Pkwy","TA1309000036","Wilton Ave & Diversey Pkwy","TA1306000014",41.93314,-87.64776,41.932418,-87.652705,"member"
"2E2D73EF3A8973E8","electric_bike","2023-01-01 02:14:02","2023-01-01 02:25:23","","","","",41.81,-87.59,41.8,-87.58,"member"
"CB034760797D9414","classic_bike","2023-01-10 08:18:34","2023-01-10 08:23:03","Wells St & Institute Pl","22001","Wells St & Evergreen Ave","TA1308000049",41.8973798607232,-87.6344203948975,41.906724,-87.63483,"casual"
"86D455F9578B2A08","classic_bike","2023-01-11 23:37:35","2023-01-11 23:42:50","Leavitt St & Division St","658","Wood St & Milwaukee Ave","13221",41.902997,-87.683825,41.907655,-87.672552,"member"
"DA86B8A4C6AB68CA","classic_bike","2023-01-07 13:21:52","2023-01-07 13:25:17","Clark St & Grace St","TA1307000127","Southport Ave & Waveland Ave","13235",41.95078,-87.659172,41.94815,-87.66394,"member"
"164EC99BCD42DDBC","classic_bike","2023-01-08 21:45:49","2023-01-08 21:56:19","Clinton St & 18th St","TA1307000044","Paulina St & 18th St","TA1307000159",41.85795,-87.640826,41.857901,-87.668745,"member"
"16B80F7AD4DBF314","classic_bike","2023-01-18 19:05:23","2023-01-18 19:25:50","Canal St & Monroe St","13056","Clifton Ave & Armitage Ave","TA1307000163",41.88169,-87.63953,41.918216,-87.656936,"member"
"ADA9CC0A34CC6B95","classic_bike","2023-01-14 11:08:15","2023-01-14 11:17:41","Indiana Ave & Roosevelt Rd","SL-005","Dearborn St & Adams St","TA1305000005",41.867888,-87.623041,41.8793563587,-87.6297910363,"member"
"06DAB016F11621E2","classic_bike","2023-01-02 12:32:52","2023-01-02 12:42:48","Wood St & Milwaukee Ave","13221","Wood St & Chicago Ave","637",41.907655,-87.672552,41.895634,-87.672069,"member"
"D9C6D23EC76AC46E","electric_bike","2023-01-06 02:34:31","2023-01-06 02:47:58","Shedd Aquarium","15544","May St & Cullerton St","13331",41.86726892,-87.615259409,41.855136,-87.654127,"member"
"4A5FF14B8BC9A969","classic_bike","2023-01-04 08:47:25","2023-01-04 08:58:10","Wabash Ave & 16th St","SL-012","Clark St & Ida B Wells Dr","TA1305000009",41.860384,-87.625813,41.8759326655,-87.6305845355,"member"
"D035BDEB2BBC3EA1","electric_bike","2023-01-18 18:26:55","2023-01-18 18:33:00","Wells St & Institute Pl","22001","New St & Illinois St","TA1306000013",41.897422671,-87.634323001,41.8908470406238,-87.6186168193817,"member"
"2802B1370AF26353","electric_bike","2023-01-06 14:24:08","2023-01-06 14:28:17","Lincoln Ave & Sunnyside Ave","TA1307000156","","",41.963032961,-87.684812427,41.96,-87.68,"member"
"06DCA817EE3616FA","electric_bike","2023-01-28 10:20:28","2023-01-28 10:20:34","","","","",41.89,-87.62,41.89,-87.62,"member"
"AF161397EC03D01D","electric_bike","2023-01-26 19:41:56","2023-01-26 19:49:24","Lincoln Ave & Belmont Ave (Temp)","TA1309000042","Broadway & Waveland Ave","13325",41.939378738,-87.671091199,41.949074,-87.648636,"member"
"1B976460F7F81EC5","classic_bike","2023-01-17 16:15:49","2023-01-17 16:46:17","Pine Grove Ave & Irving Park Rd","TA1308000022","Clark St & Wellington Ave","TA1307000136",41.954383,-87.648043,41.9364968219,-87.6475386582,"member"
"CDB98DBA0AB0DF1E","electric_bike","2023-01-25 12:30:39","2023-01-25 12:56:34","Elizabeth St & Fulton St","13197","","",41.886763573,-87.659659863,41.89,-87.65,"casual"
"82ACE4BD881C454F","classic_bike","2023-01-10 15:31:36","2023-01-10 15:38:11","Racine Ave & Randolph St","13155","Damen Ave & Madison St","13134",41.884069,-87.656853,41.88137,-87.67493,"member"
"B5D7039880F62949","electric_bike","2023-01-14 09:31:04","2023-01-14 09:31:23","Racine Ave & Fullerton Ave","TA1306000026","Racine Ave & Fullerton Ave","TA1306000026",41.925617218,-87.658362031,41.925566,-87.658416,"member"
"3EB8ABB4626F929A","docked_bike","2023-01-24 17:19:04","2023-01-24 17:45:59","Clark St & Randolph St","TA1305000030","Millennium Park","13008",41.884576,-87.63189,41.881032,-87.624084,"casual"
"34FCDEA4337829A9","electric_bike","2023-01-26 17:37:02","2023-01-26 18:02:24","Broadway & Sheridan Rd","13323","","",41.9528431666667,-87.6499723333333,42,-87.68,"member"
"1B1CD4B643F5F446","electric_bike","2023-01-19 06:41:15","2023-01-19 06:56:28","Damen Ave & Charleston St","13288","","",41.920126557,-87.677950501,41.95,-87.68,"casual"
"5EED0B48DF497757","electric_bike","2023-01-06 09:57:37","2023-01-06 10:11:58","","","","",41.9,-87.66,41.93,-87.68,"member"
"EBF4362D78AB399B","electric_bike","2023-01-17 04:48:38","2023-01-17 05:04:21","","","Ashland Ave & Division St","13061",41.94,-87.72,41.90345,-87.667747,"member"
"6CC836488A006DA0","electric_bike","2023-01-18 17:41:19","2023-01-18 17:52:15","Leavitt St & Addison St","KA1504000143","Damen Ave & Foster Ave","KA1504000149",41.946643114,-87.683335304,41.97561480459,-87.6794590387,"casual"
"51EB00627DF99112","classic_bike","2023-01-23 19:28:50","2023-01-23 19:39:47","Wabash Ave & Grand Ave","TA1307000117","Wabash Ave & Grand Ave","TA1307000117",41.891466,-87.626761,41.891466,-87.626761,"member"
"F0EA9E71DB037293","electric_bike","2023-01-23 16:56:57","2023-01-23 17:05:57","Franklin St & Lake St","TA1307000111","","",41.885931015,-87.635747313,41.9,-87.63,"member"
"D71BC36A89C8DE9A","electric_bike","2023-01-13 21:58:40","2023-01-13 22:03:27","Damen Ave & Chicago Ave","13132","Eckhart Park","13289",41.89562726,-87.677144647,41.89637337,-87.66098386,"member"
"78F6B48039E02CF5","electric_bike","2023-01-23 12:50:19","2023-01-23 12:52:46","Calumet Ave & 35th St","13345","State St & 35th St","TA1307000129",41.83141005,-87.618052363,41.8310363140161,-87.6267975568771,"member"
"215F92B5BC1BBB29","electric_bike","2023-01-31 16:18:31","2023-01-31 16:24:21","Dearborn St & Erie St","13045","LaSalle St & Jackson Blvd","TA1309000004",41.894333601,-87.629392982,41.878166,-87.631929,"member"
"BA88D711B89FCE4F","classic_bike","2023-01-04 07:40:43","2023-01-04 07:45:45","Michigan Ave & Washington St","13001","Franklin St & Lake St","TA1307000111",41.8839840647265,-87.6246839761734,41.885837,-87.6355,"member"
"096538A0B5F03BB0","electric_bike","2023-01-11 07:33:23","2023-01-11 07:41:13","Clark St & Schiller St","TA1309000024","McClurg Ct & Erie St","KA1503000041",41.908087015,-87.631439567,41.894503,-87.617854,"member"
"F613BCD4857FFFFF","electric_bike","2023-01-20 17:18:40","2023-01-20 17:37:15","Desplaines St & Kinzie St","TA1306000003","California Ave & Francis Pl (Temp)","13259",41.888611,-87.6444865,41.918491153687,-87.6974228024483,"member"
"861F2B7C5022CEBD","electric_bike","2023-01-19 16:28:22","2023-01-19 16:32:59","Orleans St & Hubbard St","636","","",41.890018106,-87.636590123,41.88,-87.64,"member"
"2D0362A4ED841D59","electric_bike","2023-01-13 13:55:53","2023-01-13 13:56:49","","","","",42.05,-87.67,42.05,-87.67,"member"
"E4D8A2BB0D48B73B","electric_bike","2023-01-01 18:58:27","2023-01-01 19:05:37","Ogden Ave & Chicago Ave","TA1305000020","Damen Ave & Chicago Ave","13132",41.896310687,-87.654116511,41.895769,-87.67722,"member"
"70008A234AF6063D","classic_bike","2023-01-30 06:25:31","2023-01-30 06:28:37","Wood St & Milwaukee Ave","13221","Honore St & Division St","TA1305000034",41.907655,-87.672552,41.903119,-87.673935,"member"
"45222D9033E3FD90","electric_bike","2023-01-11 16:45:20","2023-01-11 16:51:41","Southport Ave & Waveland Ave","13235","Southport Ave & Belmont Ave","13229",41.9480861666667,-87.6640505,41.9394777504051,-87.6637476682663,"casual"
"F12DE29596E10C1E","electric_bike","2023-01-18 18:09:33","2023-01-18 18:14:52","","","Southport Ave & Wellington Ave","TA1307000006",41.93,-87.66,41.9357746176646,-87.6636001467705,"member"
"745C799A4760B693","classic_bike","2023-01-20 17:45:56","2023-01-20 17:56:14","Sheridan Rd & Montrose Ave","TA1307000107","Clark St & Wellington Ave","TA1307000136",41.96167,-87.65464,41.9364968219,-87.6475386582,"member"
"6EA96C098765C1F2","classic_bike","2023-01-26 12:30:12","2023-01-26 12:34:56","Lake Park Ave & 56th St","TA1309000063","University Ave & 57th St","KA1503000071",41.793242,-87.587782,41.791478,-87.599861,"casual"
"72B6AB179612FD81","electric_bike","2023-01-30 09:07:16","2023-01-30 09:11:55","Southport Ave & Roscoe St","13071","Lincoln Ave & Roscoe St*","chargingstx5",41.9436308333333,-87.6639391666667,41.9433502470174,-87.6706677675247,"member"
"F52F9B2ACE38397C","electric_bike","2023-01-31 12:05:45","2023-01-31 12:11:21","Broadway & Waveland Ave","13325","","",41.949066281,-87.648548007,41.96,-87.65,"member"
"F8C8ABCA63ACF45C","classic_bike","2023-01-12 15:48:34","2023-01-12 15:56:57","California Ave & Milwaukee Ave","13084","Albany Ave & Bloomingdale Ave","15655",41.922695,-87.697153,41.91402671273,-87.705126462,"member"
"E6F2FFAE6F3CC970","classic_bike","2023-01-20 11:40:22","2023-01-20 11:53:10","Michigan Ave & 18th St","13150","Normal Ave & Archer Ave","TA1308000014",41.857813,-87.62455,41.849527,-87.640591,"member"
"9473467B4C7E2845","classic_bike","2023-01-06 22:59:18","2023-01-06 23:25:17","Michigan Ave & 14th St","TA1307000124","Ashland Ave & Augusta Blvd","13248",41.864059,-87.623727,41.899643,-87.6677,"member"
"176C4FFBB80CBEB4","electric_bike","2023-01-16 04:49:19","2023-01-16 05:00:56","Dodge Ave & Mulford St","662","Central St Metra","E006",42.0236321666667,-87.699644,42.063598,-87.69873,"casual"
"899BDF655287EE4E","electric_bike","2023-01-25 16:32:38","2023-01-25 16:43:07","Clinton St & Washington Blvd","WL-012","Dearborn Pkwy & Delaware Pl","TA1307000128",41.883546591,-87.641413569,41.898969,-87.629912,"member"
"0EC431B19E2C7776","electric_bike","2023-01-09 19:11:46","2023-01-09 19:20:17","Kingsbury St & Kinzie St","KA1503000043","Ashland Ave & Augusta Blvd","13248",41.889231205,-87.638468266,41.899643,-87.6677,"member"
"D502B18B953603E2","electric_bike","2023-01-05 12:18:36","2023-01-05 12:24:52","","","Kingsbury St & Kinzie St","KA1503000043",41.9,-87.63,41.88917683258,-87.6385057718,"member"
"7D44CD5AE0F6AD2D","classic_bike","2023-01-13 15:36:11","2023-01-13 16:03:38","Franklin St & Adams St (Temp)","TA1309000008","Elston Ave & Cortland St","TA1305000039",41.8794340914001,-87.6355040073395,41.9164334291265,-87.666746377945,"member"
"B90F4FB166C5DA07","classic_bike","2023-01-19 10:40:35","2023-01-19 10:44:57","Clark St & Chicago Ave","13303","Larrabee St & Kingsbury St","TA1306000009",41.89675,-87.63089,41.897764,-87.642884,"member"
"36AE0E0642A63425","classic_bike","2023-01-19 10:51:28","2023-01-19 10:57:31","Clarendon Ave & Junior Ter","13389","Broadway & Waveland Ave","13325",41.961004,-87.649603,41.949074,-87.648636,"member"
"9765AE59DA0EC08B","electric_bike","2023-01-20 10:10:15","2023-01-20 10:25:05","","","","",41.98,-87.69,41.99,-87.66,"member"
"CF92A0DF93796027","electric_bike","2023-01-07 15:30:34","2023-01-07 15:48:07","Kedzie Ave & Milwaukee Ave","13085","Campbell Ave & Fullerton Ave","15648",41.929588437,-87.70785296,41.92463247165,-87.6893070063,"casual"
"14C5023B36B0CC19","electric_bike","2023-01-21 12:47:04","2023-01-21 12:47:49","Desplaines St & Randolph St","15535","Desplaines St & Randolph St","15535",41.884579182,-87.644426107,41.88461618962,-87.6445705849,"member"
"C92CB6CDAE617667","classic_bike","2023-01-15 14:27:18","2023-01-15 14:35:25","McClurg Ct & Ohio St","TA1306000029","Rush St & Superior St","15530",41.8925921197097,-87.6172891259193,41.89576474564,-87.6259080327,"member"
"C2033ADB2A29ED0A","electric_bike","2023-01-24 06:18:53","2023-01-24 06:22:58","Leavitt St & North Ave","TA1308000005","Honore St & Division St","TA1305000034",41.910182476,-87.68234992,41.903119,-87.673935,"member"
"5EE52C55640F93EA","classic_bike","2023-01-26 17:22:06","2023-01-26 17:30:20","Franklin St & Adams St (Temp)","TA1309000008","Kingsbury St & Kinzie St","KA1503000043",41.8794340914001,-87.6355040073395,41.88917683258,-87.6385057718,"member"
"1F31F2B4F3D33E40","electric_bike","2023-01-21 11:27:35","2023-01-21 11:38:07","Racine Ave & 18th St","13164","Peoria St & Jackson Blvd","13158",41.85815239,-87.656359196,41.8776415962753,-87.6496177911758,"member"
"375F9721768F9ADC","classic_bike","2023-01-06 17:09:07","2023-01-06 17:14:41","University Ave & 57th St","KA1503000071","Harper Ave & 59th St","KA1503000070",41.791478,-87.599861,41.78794281287,-87.5883151702,"member"
"15E61B272614AF3C","classic_bike","2023-01-03 10:44:45","2023-01-03 10:47:44","Cityfront Plaza Dr & Pioneer Ct","13427","Wabash Ave & Wacker Pl","TA1307000131",41.890573,-87.622072,41.886875,-87.62603,"member"
"91D12117CD7FC44E","classic_bike","2023-01-09 14:21:22","2023-01-09 14:27:57","State St & Chicago Ave","21544","Wells St & Institute Pl","22001",41.8966172004075,-87.628578543663,41.8973798607232,-87.6344203948975,"member"
"8987F12D3EC5314E","electric_bike","2023-01-22 12:07:47","2023-01-22 12:10:20","Ravenswood Ave & Lawrence Ave","TA1309000066","Clark St & Leland Ave","TA1309000014",41.9690623333333,-87.6742253333333,41.9670878391842,-87.667290866375,"member"
"49D6D305B9B2C3F8","classic_bike","2023-01-20 17:45:09","2023-01-20 17:57:15","Canal St & Adams St","13011","Wabash Ave & 16th St","SL-012",41.879255,-87.639904,41.860384,-87.625813,"member"
"3F8D810A63B7A22E","classic_bike","2023-01-22 10:12:47","2023-01-22 10:23:56","Sheffield Ave & Willow St","TA1306000032","Ashland Ave & Wrightwood Ave","13296",41.913688,-87.652855,41.92883,-87.668507,"casual"
"8DA1A3601D2C0829","classic_bike","2023-01-13 11:40:33","2023-01-13 11:51:05","Mies van der Rohe Way & Chicago Ave","13338","Mies van der Rohe Way & Chestnut St","15529",41.8969446263708,-87.6217576861382,41.8985866514,-87.6219152258,"member"
"AEE9AEFCFF3B7F34","classic_bike","2023-01-07 17:06:44","2023-01-07 17:13:59","Jefferson St & Monroe St","WL-011","Halsted St & Polk St","TA1307000121",41.8803296336346,-87.6427459716797,41.87184,-87.64664,"member"
"15A2A6780198FDFD","classic_bike","2023-01-03 08:40:47","2023-01-03 08:50:19","Broadway & Barry Ave","13137","Cannon Dr & Fullerton Ave","13124",41.9375823160063,-87.6440978050232,41.9267559875,-87.6344287848,"member"
"6943B68B0755696D","electric_bike","2023-01-06 14:09:31","2023-01-06 14:17:48","St. Clair St & Erie St","13016","Clinton St & Washington Blvd","WL-012",41.894181252,-87.622885466,41.88338,-87.64117,"casual"
"FF3F09589BDD4807","classic_bike","2023-01-15 16:43:43","2023-01-15 16:57:03","Western Ave & Congress Pkwy","15668","Morgan St & Polk St","TA1307000130",41.87474885079,-87.6864452757,41.871737,-87.65103,"casual"
"4BA9E7DC05502ABA","electric_bike","2023-01-05 11:33:32","2023-01-05 11:42:04","Daley Center Plaza","TA1306000010","Rush St & Cedar St","KA1504000133",41.884013176,-87.629491329,41.90230870122,-87.627690528,"member"
"249D2033C56837BB","classic_bike","2023-01-14 20:13:16","2023-01-14 20:16:28","Lincoln Ave & Diversey Pkwy","TA1307000064","Southport Ave & Wellington Ave","TA1307000006",41.932225,-87.658617,41.9357746176646,-87.6636001467705,"casual"
"B9C9C5E9CFA19C99","electric_bike","2023-01-04 15:30:53","2023-01-04 15:37:11","Fairbanks Ct & Grand Ave","TA1305000003","Franklin St & Adams St (Temp)","TA1309000008",41.891514421,-87.620646358,41.8794340914001,-87.6355040073395,"member"
"2DEAF66C9D5C38CA","classic_bike","2023-01-26 08:18:33","2023-01-26 08:29:00","Clark St & Chicago Ave","13303","Franklin St & Monroe St","TA1309000007",41.89675,-87.63089,41.880317,-87.635185,"member"
"33B3F9A86E08B9B6","electric_bike","2023-01-08 12:35:01","2023-01-08 12:44:38","Morgan St & Polk St","TA1307000130","Ashland Ave & 13th St","13354",41.872032404,-87.651054382,41.865234,-87.666507,"member"
"EB5434743CA2FB10","classic_bike","2023-01-18 17:26:56","2023-01-18 17:27:14","Morgan St & Lake St*","chargingstx4","Morgan St & Lake St*","chargingstx4",41.8854917062691,-87.6522892713547,41.8854917062691,-87.6522892713547,"member"
"47EE4B030777DCDA","electric_bike","2023-01-07 17:10:09","2023-01-07 17:14:11","Clarendon Ave & Leland Ave","TA1307000119","","",41.967998028,-87.650100946,41.97,-87.65,"member"
"8699970DB6FB2AFA","electric_bike","2023-01-13 14:35:32","2023-01-13 14:38:43","Clinton St & Jackson Blvd","638","Clinton St & Lake St","13021",41.878296971,-87.641281366,41.885637,-87.641823,"casual"
"4486228DFF5004F6","electric_bike","2023-01-12 12:01:36","2023-01-12 12:05:06","Michigan Ave & Jackson Blvd","TA1309000002","","",41.877822995,-87.623870969,41.88,-87.62,"member"
"E2B56512966E5855","electric_bike","2023-01-21 08:28:06","2023-01-21 08:40:33","Ashland Ave & Grace St","13319","Clark St & Elmdale Ave","KA1504000148",41.950762153,-87.668701291,41.9908604481256,-87.6697236299515,"member"
"0C5A2C91B132809E","classic_bike","2023-01-12 08:09:33","2023-01-12 08:22:34","Michigan Ave & 14th St","TA1307000124","Dearborn St & Monroe St","TA1305000006",41.864059,-87.623727,41.881319815,-87.6295209193,"casual"
"1EA8E6F722A82F71","classic_bike","2023-01-17 16:02:24","2023-01-17 16:04:21","Sheridan Rd & Irving Park Rd","13063","Sheridan Rd & Buena Ave","TA1309000027",41.954245,-87.654406,41.958494,-87.654966,"member"
"8A1BEB8EDAFD21B4","electric_bike","2023-01-09 17:12:04","2023-01-09 17:16:07","Broadway & Waveland Ave","13325","Clarendon Ave & Junior Ter","13389",41.949068546,-87.648555279,41.961004,-87.649603,"member"
"ED02A3C939B21DC2","electric_bike","2023-01-23 13:38:55","2023-01-23 13:51:23","St. Clair St & Erie St","13016","","",41.89433229,-87.622952461,41.88,-87.65,"casual"
"0FA0C3DA8234E5B2","electric_bike","2023-01-17 22:24:16","2023-01-17 22:52:09","Lincoln Ave & Addison St","TA1309000050","Pine Grove Ave & Irving Park Rd","TA1308000022",41.946147799,-87.673223138,41.954383,-87.648043,"casual"
"6B7391E967B2D0CA","classic_bike","2023-01-19 18:29:44","2023-01-19 18:31:05","Michigan Ave & Ida B Wells Dr","TA1305000010","Michigan Ave & Jackson Blvd","TA1309000002",41.876243,-87.624426,41.87785,-87.62408,"member"
"E6FE6841E626CB93","classic_bike","2023-01-16 15:42:37","2023-01-16 15:53:00","Mies van der Rohe Way & Chicago Ave","13338","Dayton St & North Ave","13058",41.8969446263708,-87.6217576861382,41.9105780349,-87.6494219288,"member"
"972F96A0F8D36D6E","electric_bike","2023-01-20 17:10:46","2023-01-20 17:21:28","Clark St & Winnemac Ave","TA1309000035","Lincoln Ave & Belle Plaine Ave","TA1309000026",41.973428249,-87.667907,41.9560035507855,-87.6801614463329,"member"
"C19ECFC7FCE17931","electric_bike","2023-01-27 13:31:33","2023-01-27 13:41:36","","","Dearborn St & Monroe St","TA1305000006",41.89,-87.63,41.881319815,-87.6295209193,"member"
"8E72E3A280453014","classic_bike","2023-01-22 11:34:27","2023-01-22 12:07:27","Wells St & Polk St","SL-011","Larrabee St & Webster Ave","13193",41.8727315422631,-87.6335164904594,41.921822,-87.64414,"member"
"9EEA1A201B78934E","classic_bike","2023-01-10 17:28:12","2023-01-10 17:37:36","Canal St & Madison St","13341","Carpenter St & Huron St","13196",41.882409,-87.639767,41.894556,-87.653449,"member"
"AD957060D8747A4B","electric_bike","2023-01-21 08:06:06","2023-01-21 08:14:46","Bosworth Ave & Howard St","16806","","",42.019484758,-87.669415116,42,-87.66,"casual"
"2CF6856794AFACCD","electric_bike","2023-01-27 13:27:31","2023-01-27 13:36:16","Damen Ave & Wellington Ave","13268","","",41.935904384,-87.678505659,41.94,-87.67,"member"
"F20ED8F1D542EA83","classic_bike","2023-01-31 18:31:16","2023-01-31 18:51:19","Calumet Ave & 35th St","13345","Emerald Ave & 28th St","TA1307000153",41.831379,-87.618034,41.84358,-87.645368,"member"
"012C4A4819E9F3B7","classic_bike","2023-01-30 16:18:57","2023-01-30 16:25:24","Ravenswood Ave & Lawrence Ave","TA1309000066","Winchester (Ravenswood) Ave & Balmoral Ave","KA1504000147",41.96909,-87.674237,41.979762,-87.67753,"member"
"F34F59463112B906","electric_bike","2023-01-07 10:39:54","2023-01-07 10:43:36","Broadway & Belmont Ave","13277","Wilton Ave & Belmont Ave","TA1307000134",41.9400723333333,-87.6455448333333,41.9402319181086,-87.6529437303543,"casual"
"109669AE1B19166C","electric_bike","2023-01-04 21:42:43","2023-01-04 21:45:43","Canal St & Taylor St","15550","Clinton St & Jackson Blvd","638",41.8701663333333,-87.6394946666667,41.8783166118307,-87.6409810781479,"member"
"EA5268B668DB2623","electric_bike","2023-01-24 16:02:01","2023-01-24 16:07:27","Monticello Ave & Irving Park Rd","KA1504000139","Avondale Ave & Irving Park Rd","15624",41.954047322,-87.719100595,41.953393,-87.732002,"casual"
"FF146835E19FD86F","electric_bike","2023-01-05 14:09:04","2023-01-05 14:21:22","Daley Center Plaza","TA1306000010","","",41.884203553,-87.629600406,41.87,-87.63,"member"
"7C9D2FECABE8151F","electric_bike","2023-01-15 11:09:59","2023-01-15 11:18:18","","","Clarendon Ave & Junior Ter","13389",41.94,-87.64,41.961004,-87.649603,"casual"
"12994DE9000862DB","classic_bike","2023-01-06 16:57:58","2023-01-06 17:15:06","Dearborn St & Monroe St","TA1305000006","Calumet Ave & 18th St","13102",41.881319815,-87.6295209193,41.8576175529375,-87.6194107532501,"member"
"69395D0B6D5AF2C3","electric_bike","2023-01-04 18:53:51","2023-01-04 19:00:34","Orleans St & Chestnut St (NEXT Apts)","620","Wells St & Hubbard St","TA1307000151",41.898134947,-87.637544513,41.889906,-87.634266,"member"
"22BB1AEEB44CEFC6","electric_bike","2023-01-09 08:12:59","2023-01-09 08:16:27","Clark St & Wellington Ave","TA1307000136","Clark St & Newport St","632",41.936514974,-87.647578001,41.94454,-87.654678,"member"
"7B4DDB2559AC4F3B","classic_bike","2023-01-04 18:23:54","2023-01-04 18:52:56","Streeter Dr & Grand Ave","13022","Aberdeen St & Jackson Blvd","13157",41.892278,-87.612043,41.87772613,-87.65478743,"member"
"C449EB70B8A8A7AD","electric_bike","2023-01-17 17:07:10","2023-01-17 17:16:06","Larrabee St & Kingsbury St","TA1306000009","Canal St & Adams St","13011",41.8976123333333,-87.643163,41.879255,-87.639904,"member"
"E1BD750D3C8FBB60","classic_bike","2023-01-13 08:53:05","2023-01-13 08:58:35","State St & Chicago Ave","21544","Larrabee St & Kingsbury St","TA1306000009",41.8966172004075,-87.628578543663,41.897764,-87.642884,"member"
"30EC965AB685DEF7","electric_bike","2023-01-18 17:31:39","2023-01-18 17:48:06","Lincoln Park Conservatory","LP-","Marine Dr & Ainslie St","KA1504000171",41.924282551,-87.635962486,41.9716,-87.650154,"member"
"BDA6F6BE7D8518D5","electric_bike","2023-01-13 19:14:37","2023-01-13 19:18:27","","","","",41.78,-87.6,41.79,-87.6,"member"
"06EEF5F23FA1A0B4","electric_bike","2023-01-01 16:30:48","2023-01-01 16:31:44","","","","",41.93,-87.66,41.93,-87.66,"casual"
"71FC094C1EE03019","classic_bike","2023-01-11 06:40:10","2023-01-11 06:40:39","Clark St & Elm St","TA1307000039","Clark St & Elm St","TA1307000039",41.902973,-87.63128,41.902973,-87.63128,"member"
"628298B4B838EFBD","classic_bike","2023-01-24 23:02:39","2023-01-24 23:27:25","Halsted St & Wrightwood Ave","TA1309000061","Clinton St & Lake St","13021",41.929143,-87.649077,41.885637,-87.641823,"member"
"903BC8EB120F4673","electric_bike","2023-01-20 19:17:23","2023-01-20 19:25:30","Washtenaw Ave & Polk St","420","","",41.87,-87.69,41.88,-87.71,"member"
"2A1415CE7AD64AF6","classic_bike","2023-01-11 17:57:44","2023-01-11 18:02:49","University Ave & 57th St","KA1503000071","Kimbark Ave & 53rd St","TA1309000037",41.791478,-87.599861,41.799568,-87.594747,"member"
"827A8A98707DC596","classic_bike","2023-01-27 20:30:27","2023-01-27 20:34:04","Orleans St & Merchandise Mart Plaza","TA1305000022","LaSalle St & Illinois St","13430",41.888243,-87.63639,41.890762,-87.631697,"member"
"ED366B101A297C58","electric_bike","2023-01-19 11:44:45","2023-01-19 11:51:06","","","Leavitt St & Belmont Ave","KA17018068",41.93,-87.69,41.939354,-87.683282,"casual"
"4B179F8043F8A95E","classic_bike","2023-01-11 19:35:19","2023-01-11 19:42:22","Clark St & Wrightwood Ave","TA1305000014","Halsted St & Dickens Ave","13192",41.929546,-87.643118,41.919936,-87.64883,"member"
"6EBFD05391D093BC","classic_bike","2023-01-24 14:15:54","2023-01-24 14:19:57","Millennium Park","13008","DuSable Lake Shore Dr & Monroe St","13300",41.8810317,-87.62408432,41.880958,-87.616743,"member"
"CFF5E1C59FBCD332","classic_bike","2023-01-14 18:31:45","2023-01-14 18:43:42","Calumet Ave & 35th St","13345","Cottage Grove Ave & 43rd St","TA1308000023",41.831379,-87.618034,41.816499,-87.606582,"member"
"82CEAE0ABF43B099","electric_bike","2023-01-13 18:55:43","2023-01-13 18:58:25","Wells St & Huron St","TA1306000012","Wells St & Elm St","KA1504000135",41.894764781,-87.63438499,41.903222,-87.634324,"member"
"ECC745152F0BE533","classic_bike","2023-01-19 06:37:40","2023-01-19 06:43:14","Southport Ave & Irving Park Rd","TA1309000043","Southport Ave & Roscoe St","13071",41.954177,-87.664358,41.943739,-87.66402,"member"
"559A4E7729CCCF1F","classic_bike","2023-01-06 16:44:54","2023-01-06 16:47:43","Ellis Ave & 58th St","TA1309000011","Ellis Ave & 55th St","KA1504000076",41.788746,-87.601334,41.79430062054,-87.6014497734,"member"
"2E97333A4F7E8325","electric_bike","2023-01-12 09:30:46","2023-01-12 09:37:14","Michigan Ave & 8th St","623","","",41.872336268,-87.623901129,41.88,-87.63,"casual"
"1BE4B766F02D5031","classic_bike","2023-01-29 01:24:04","2023-01-29 01:34:09","Larrabee St & Armitage Ave","TA1309000006","Broadway & Barry Ave","13137",41.918084,-87.643749,41.9375823160063,-87.6440978050232,"member"
"5D8E1735B099DA15","classic_bike","2023-01-25 17:45:43","2023-01-25 18:11:44","St. Clair St & Erie St","13016","Western Ave & Walton St","KA1504000103",41.8943451374243,-87.6227983832359,41.89841768945,-87.6865960164,"member"
"4B54BE6D57F7EA59","electric_bike","2023-01-13 23:33:11","2023-01-13 23:36:37","Clarendon Ave & Leland Ave","TA1307000119","","",41.967973709,-87.649999142,41.98,-87.65,"member"
"F6BA49A19ACB76AE","electric_bike","2023-01-04 13:38:45","2023-01-04 13:48:46","DuSable Lake Shore Dr & North Blvd","LF-005","DuSable Lake Shore Dr & Diversey Pkwy","TA1309000039",41.9116998333333,-87.6268345,41.932588,-87.636427,"member"
"4F46D45AA64DAE28","classic_bike","2023-01-13 12:11:46","2023-01-13 12:54:20","Shore Dr & 55th St","TA1308000009","Lake Park Ave & 35th St","KA1503000004",41.795212,-87.580715,41.83127423549,-87.6087991946,"member"
"C6741F5EB3A062DE","classic_bike","2023-01-25 18:41:41","2023-01-25 18:48:06","Fairbanks Ct & Grand Ave","TA1305000003","State St & Randolph St","TA1305000029",41.8918473721099,-87.6205801963806,41.8846210725794,-87.6278342306614,"member"
"BD4165EFCF28DA17","electric_bike","2023-01-20 07:30:29","2023-01-20 07:33:42","Franklin St & Lake St","TA1307000111","Dearborn St & Adams St","TA1305000005",41.885901809,-87.635483623,41.8793563587,-87.6297910363,"member"
"6713E4D05F58CB53","classic_bike","2023-01-18 08:08:49","2023-01-18 08:23:03","Damen Ave & Grand Ave","TA1308000006","Wells St & Hubbard St","TA1307000151",41.8923944529627,-87.6768851280212,41.889906,-87.634266,"member"
"205F160469AB332D","classic_bike","2023-01-10 14:17:43","2023-01-10 15:34:42","Federal St & Polk St","SL-008","State St & Chicago Ave","21544",41.87207763285,-87.6295437729,41.8966172004075,-87.628578543663,"casual"
"5D6040EBEB174EF0","classic_bike","2023-01-03 12:36:08","2023-01-03 12:41:52","Lincoln Ave & Fullerton Ave","TA1309000058","Burling St & Diversey Pkwy","TA1309000036",41.9241610290676,-87.6463803648949,41.93314,-87.64776,"member"
"24B4BD7D5E3B22AC","classic_bike","2023-01-11 06:51:30","2023-01-11 06:56:17","Halsted St & Roscoe St","TA1309000025","Sheffield Ave & Wellington Ave","TA1307000052",41.94367,-87.64895,41.9362534831413,-87.6526620984077,"casual"
"EADE6ED6590E3DD7","electric_bike","2023-01-14 08:11:12","2023-01-14 08:14:56","Clarendon Ave & Junior Ter","13389","","",41.961023927,-87.649405599,41.97,-87.65,"casual"
"A7096745EE9759C0","electric_bike","2023-01-21 21:17:06","2023-01-21 21:21:53","Kedzie Ave & Milwaukee Ave","13085","","",41.9295861666667,-87.7079071666667,41.93,-87.72,"casual"
"66A29DA9A2696EF3","electric_bike","2023-01-28 01:46:20","2023-01-28 01:50:56","","","LaSalle Dr & Huron St","KP1705001026",41.89,-87.64,41.894877,-87.632326,"casual"
"018F59C963365948","electric_bike","2023-01-14 13:50:10","2023-01-14 13:50:34","LaSalle St & Illinois St","13430","LaSalle St & Illinois St","13430",41.890686035,-87.631643295,41.890762,-87.631697,"member"
"1DB0EEEE9FC47A54","electric_bike","2023-01-15 14:43:48","2023-01-15 15:06:13","","","Cottage Grove Ave & 51st St","TA1309000067",41.78,-87.61,41.803038,-87.606615,"member"
"8800ACE3D3869AB6","classic_bike","2023-01-04 08:40:00","2023-01-04 08:43:29","Franklin St & Chicago Ave","13017","LaSalle St & Illinois St","13430",41.8967469730938,-87.6356676220894,41.890762,-87.631697,"member"
"768D0F3EA73A60B8","classic_bike","2023-01-11 08:24:02","2023-01-11 09:06:12","Leavitt St & Addison St","KA1504000143","Cityfront Plaza Dr & Pioneer Ct","13427",41.946655,-87.683359,41.890573,-87.622072,"member"
"28BFC06909374D3C","electric_bike","2023-01-24 18:34:30","2023-01-24 18:41:33","Richmond St & Lincoln Ave","452","Lincoln Ave & Peterson Ave","462",41.99,-87.7,41.99,-87.71,"casual"
"15BDAEC93BD840BB","electric_bike","2023-01-09 17:06:14","2023-01-09 17:11:54","Elston Ave & Cortland St","TA1305000039","","",41.916421175,-87.666788101,41.92,-87.65,"member"
"130F7B206B3EFB40","docked_bike","2023-01-13 09:34:36","2023-01-13 09:44:58","Clinton St & Washington Blvd","WL-012","Halsted St & Polk St","TA1307000121",41.88338,-87.64117,41.87184,-87.64664,"casual"
"248A4A460BC679D2","classic_bike","2023-01-23 17:01:53","2023-01-23 17:07:02","Loomis St & Lexington St","13332","Wolcott Ave & Polk St","TA1309000064",41.8722287322403,-87.6613638550043,41.871262,-87.673688,"member"
"D4D7B6C46D44BC7E","electric_bike","2023-01-14 14:47:20","2023-01-14 14:51:43","","","","",41.94,-87.67,41.93,-87.67,"member"
"21290A48A5B86A15","electric_bike","2023-01-16 18:08:12","2023-01-16 18:18:07","Blue Island Ave & 18th St","13135","","",41.857426047,-87.661653876,41.86,-87.66,"member"
"4332A31CA508DA50","electric_bike","2023-01-29 09:57:15","2023-01-29 10:01:47","Loomis St & Lexington St","13332","Morgan St & Polk St","TA1307000130",41.872194648,-87.661399841,41.871737,-87.65103,"member"
"392F33081EBD1540","classic_bike","2023-01-18 13:42:36","2023-01-18 13:47:23","Broadway & Waveland Ave","13325","Broadway & Sheridan Rd","13323",41.949074,-87.648636,41.952833,-87.649993,"member"
"4355428A45C9E220","electric_bike","2023-01-11 14:17:36","2023-01-11 14:24:48","Morgan St & Polk St","TA1307000130","Green St & Madison St","TA1307000120",41.871959,-87.651054,41.8818593280382,-87.6492637395859,"member"
"AE9FE3893D2387AD","classic_bike","2023-01-20 21:03:15","2023-01-20 21:11:54","Wolcott Ave & Polk St","TA1309000064","Loomis St & Lexington St","13332",41.871262,-87.673688,41.8722287322403,-87.6613638550043,"member"
"D78BAD711C34ECE1","electric_bike","2023-01-31 17:39:02","2023-01-31 17:39:06","","","","",41.9,-87.63,41.9,-87.63,"casual"
"F9838F08A60E2CB2","classic_bike","2023-01-30 09:34:41","2023-01-30 09:58:21","Halsted St & Wrightwood Ave","TA1309000061","Dearborn St & Monroe St","TA1305000006",41.929143,-87.649077,41.881319815,-87.6295209193,"member"
"2E63F11EE90ED33D","electric_bike","2023-01-11 15:49:01","2023-01-11 15:52:56","Daley Center Plaza","TA1306000010","","",41.884263158,-87.629340291,41.88,-87.63,"member"
"2FA57B4964BC4C10","electric_bike","2023-01-28 21:53:06","2023-01-28 21:58:40","Damen Ave & Pierce Ave","TA1305000041","Damen Ave & Chicago Ave","13132",41.909424663,-87.677699089,41.895769,-87.67722,"member"
"6C06831FB4CFBB81","classic_bike","2023-01-21 15:26:16","2023-01-21 15:34:15","Clark St & Newport St","632","Clark St & Wrightwood Ave","TA1305000014",41.94454,-87.654678,41.929546,-87.643118,"member"
"50E0A22EAFD59855","classic_bike","2023-01-29 14:50:40","2023-01-29 15:15:46","Clarendon Ave & Leland Ave","TA1307000119","Lincoln Ave & Roscoe St*","chargingstx5",41.967968,-87.650001,41.9433502470174,-87.6706677675247,"member"
"3736FE0979BF13CD","classic_bike","2023-01-24 16:35:10","2023-01-24 16:50:05","Hermitage Ave & Polk St","13080","Ashland Ave & Augusta Blvd","13248",41.871514,-87.669886,41.899643,-87.6677,"member"
"25DDDD5EE2FBD550","classic_bike","2023-01-21 19:08:05","2023-01-21 19:11:55","Dearborn St & Erie St","13045","Wells St & Institute Pl","22001",41.893992,-87.629318,41.8973798607232,-87.6344203948975,"member"
"F12D6567FB4CB19E","classic_bike","2023-01-12 06:12:19","2023-01-12 06:21:37","Wells St & Walton St","TA1306000011","Clinton St & Washington Blvd","WL-012",41.89993001,-87.63443007,41.88338,-87.64117,"member"
"927A98DC650ED3CB","docked_bike","2023-01-07 19:29:50","2023-01-07 19:36:13","Sheridan Rd & Noyes St (NU)","604","Chicago Ave & Sheridan Rd","E008",42.058239,-87.677432,42.050491,-87.677821,"casual"
"3F8444ACAAB0ADE2","classic_bike","2023-01-12 07:53:00","2023-01-12 07:54:38","Ravenswood Ave & Irving Park Rd","TA1307000149","Ravenswood Ave & Berteau Ave","TA1309000018",41.95469,-87.67393,41.957921,-87.673567,"member"
"B8A59A7483FB52D7","electric_bike","2023-01-09 12:01:47","2023-01-09 12:07:01","","","Wells St & Huron St","TA1306000012",41.89,-87.64,41.894722,-87.634362,"member"
"FF16D09B9C5CBDB1","electric_bike","2023-01-03 18:33:41","2023-01-03 18:35:25","Cornell Ave & Hyde Park Blvd","KA1503000007","","",41.8024511666667,-87.5869875,41.8,-87.59,"casual"
"F5929FC7B2A810CF","classic_bike","2023-01-15 14:13:50","2023-01-15 14:34:54","Fairbanks Ct & Grand Ave","TA1305000003","DuSable Lake Shore Dr & Diversey Pkwy","TA1309000039",41.8918473721099,-87.6205801963806,41.932588,-87.636427,"member"
"2AF8CDAD40824477","classic_bike","2023-01-17 16:55:06","2023-01-17 17:00:15","Clinton St & Madison St","TA1305000032","Orleans St & Hubbard St","636",41.8827519656856,-87.641190290451,41.890028,-87.636618,"member"
"99745D1F8434BF4D","electric_bike","2023-01-06 18:55:43","2023-01-06 19:01:29","","","Sheffield Ave & Wrightwood Ave","TA1309000023",41.93,-87.64,41.928712,-87.653833,"member"
"00C97510CC81C282","electric_bike","2023-01-07 01:37:49","2023-01-07 01:37:52","Halsted St & Wrightwood Ave","TA1309000061","","",41.929167509,-87.649184704,41.93,-87.65,"member"
"324CA380741FEA2B","electric_bike","2023-01-13 17:27:53","2023-01-13 17:39:06","Wells St & Concord Ln","TA1308000050","Daley Center Plaza","TA1306000010",41.9120248333333,-87.6347593333333,41.884241,-87.629634,"member"
"304F0BA8F2152C55","classic_bike","2023-01-11 09:35:39","2023-01-11 09:41:52","Calumet Ave & 21st St","15546","Field Museum","13029",41.85418424947,-87.6191537415,41.865312,-87.617867,"member"
"FB12E656F0B362A8","electric_bike","2023-01-06 22:50:04","2023-01-06 23:00:52","Dearborn Pkwy & Delaware Pl","TA1307000128","Wabash Ave & 9th St","TA1309000010",41.899011254,-87.629986763,41.870769,-87.625734,"member"
"E83C6CE9EB2C499F","classic_bike","2023-01-29 22:20:33","2023-01-29 22:37:06","State St & Chicago Ave","21544","Federal St & Polk St","SL-008",41.8966172004075,-87.628578543663,41.87207763285,-87.6295437729,"casual"
"8A617A741E0AE1E8","electric_bike","2023-01-11 06:59:10","2023-01-11 07:08:38","Wells St & Elm St","KA1504000135","N Green St & W Lake St","20246.0",41.903301239,-87.63459146,41.89,-87.65,"member"
"666BE4B0E08CE910","electric_bike","2023-01-08 15:28:21","2023-01-08 15:42:54","Franklin St & Chicago Ave","13017","Wabash Ave & Roosevelt Rd","TA1305000002",41.896926641,-87.635586023,41.867227,-87.625961,"member"
"10325AACFA8E020A","electric_bike","2023-01-04 14:45:52","2023-01-04 14:52:08","","","McCormick Place","TA1305000004",41.85,-87.64,41.8513751729,-87.6188346489,"member"
"78E43CA6EBC4A5F5","classic_bike","2023-01-10 10:12:07","2023-01-10 10:15:06","Broadway & Waveland Ave","13325","Pine Grove Ave & Irving Park Rd","TA1308000022",41.949074,-87.648636,41.954383,-87.648043,"member"
"5012A747392D305F","electric_bike","2023-01-14 13:02:16","2023-01-14 13:08:14","Walsh Park","18067","Sheffield Ave & Kingsbury St","13154",41.91457808,-87.668003201,41.910522,-87.653106,"member"
"60008E7431FDCBBC","classic_bike","2023-01-09 16:31:32","2023-01-09 16:44:08","Broadway & Belmont Ave","13277","Clarendon Ave & Leland Ave","TA1307000119",41.940106,-87.645451,41.967968,-87.650001,"member"
"4D04E3EBDD3F4CE2","classic_bike","2023-01-18 06:09:17","2023-01-18 06:11:09","Kingsbury St & Erie St","13265","Larrabee St & Kingsbury St","TA1306000009",41.8938080562436,-87.6416972279549,41.897764,-87.642884,"member"
"49C05D6C94EA1E1B","classic_bike","2023-01-15 17:28:44","2023-01-15 17:34:15","Sedgwick St & North Ave","TA1307000038","Larrabee St & Division St","KA1504000079",41.911386,-87.638677,41.90348607004,-87.6433534936,"member"
"AE035FB38B5E8960","electric_bike","2023-01-07 15:55:17","2023-01-07 15:59:14","Dearborn St & Erie St","13045","Kingsbury St & Erie St","13265",41.894155622,-87.62935245,41.8938080562436,-87.6416972279549,"member"
"089E5A74C5EF1605","classic_bike","2023-01-17 11:35:30","2023-01-17 11:39:31","State St & Harrison St","SL-007","Dearborn St & Monroe St","TA1305000006",41.874053,-87.627716,41.881319815,-87.6295209193,"member"
"566BFBEECAA183AD","electric_bike","2023-01-24 05:34:43","2023-01-24 05:40:31","Seeley Ave & Roscoe St","13144","","",41.943383813,-87.67980814,41.94,-87.67,"casual"
"ED27CC231DB99FA0","electric_bike","2023-01-05 08:42:07","2023-01-05 08:42:21","Clinton St & Jackson Blvd","638","Clinton St & Jackson Blvd","638",41.878468275,-87.64145422,41.8783166118307,-87.6409810781479,"member"
"F2D0E09125D9358C","classic_bike","2023-01-04 14:02:19","2023-01-04 14:15:03","Halsted St & 21st St","13162","Halsted St & Roosevelt Rd","TA1305000017",41.8537798107274,-87.6466029882431,41.867324,-87.648625,"member"
"940A4A5134C4B7F4","electric_bike","2023-01-15 16:30:04","2023-01-15 16:56:17","McClurg Ct & Ohio St","TA1306000029","DuSable Lake Shore Dr & North Blvd","LF-005",41.893318653,-87.617427349,41.911722,-87.626804,"casual"
"EA891E58392DBD5F","classic_bike","2023-01-17 07:45:13","2023-01-17 07:50:11","Western Ave & Howard St","527","Paulina St & Howard St","515",42.018901,-87.690048,42.019159,-87.673573,"member"
"45B5C9F2EB4C27AA","electric_bike","2023-01-09 17:15:47","2023-01-09 17:20:28","","","N Green St & W Lake St","20246.0",41.89,-87.64,41.89,-87.65,"member"
"7C846F1DCEDA9E50","electric_bike","2023-01-16 10:27:53","2023-01-16 10:35:45","Orleans St & Merchandise Mart Plaza","TA1305000022","St. Clair St & Erie St","13016",41.8878575,-87.6369448333333,41.8943451374243,-87.6227983832359,"member"
"1FFD0AADF2FEE9B6","classic_bike","2023-01-09 11:34:16","2023-01-09 11:38:44","University Ave & 57th St","KA1503000071","Ellis Ave & 60th St","KA1503000014",41.791478,-87.599861,41.78509714636,-87.6010727606,"member"
"375270485F12D3CB","classic_bike","2023-01-12 18:31:51","2023-01-12 18:35:58","Clinton St & Washington Blvd","WL-012","Desplaines St & Kinzie St","TA1306000003",41.88338,-87.64117,41.888716036,-87.6444478533,"member"
"23129040088734CB","classic_bike","2023-01-03 10:29:34","2023-01-03 10:40:48","Richmond St & Diversey Ave","15645","Damen Ave & Clybourn Ave","13271",41.93190196886,-87.7011951301,41.931931,-87.677856,"casual"
"99E7D2D7B5F8CF4B","classic_bike","2023-01-13 14:52:29","2023-01-13 14:57:31","Ellis Ave & 60th St","KA1503000014","Ellis Ave & 55th St","KA1504000076",41.78509714636,-87.6010727606,41.79430062054,-87.6014497734,"member"
"6AE2250B3DAB95B4","electric_bike","2023-01-15 20:20:43","2023-01-15 20:22:28","Southport Ave & Waveland Ave","13235","Southport Ave & Irving Park Rd","TA1309000043",41.948038816,-87.664158106,41.954177,-87.664358,"casual"
"D2C5396F74DC4C31","docked_bike","2023-01-08 02:51:23","2023-01-08 03:49:04","Franklin St & Adams St (Temp)","TA1309000008","Wacker Dr & Washington St","KA1503000072",41.879434,-87.635504,41.883143,-87.637242,"casual"
"8615E5169EA01AD2","electric_bike","2023-01-02 01:29:02","2023-01-02 01:32:37","Broadway & Berwyn Ave","13109","Clark St & Winnemac Ave","TA1309000035",41.978422523,-87.659757376,41.973347640473,-87.6678554713726,"casual"
"4E1014119A678FA1","classic_bike","2023-01-03 10:30:11","2023-01-03 10:35:21","Larrabee St & North Ave","TA1306000008","Larrabee St & Kingsbury St","TA1306000009",41.91021,-87.6435,41.897764,-87.642884,"member"
"26A73853BFF32235","electric_bike","2023-01-18 07:43:33","2023-01-18 07:48:03","","","Daley Center Plaza","TA1306000010",41.88,-87.63,41.884241,-87.629634,"member"
"59E59AA894F9E831","electric_bike","2023-01-17 18:07:00","2023-01-17 18:10:30","Clark St & Elm St","TA1307000039","Ritchie Ct & Banks St","KA1504000134",41.902989984,-87.631524324,41.906866,-87.626217,"member"
"48F1734D1971099A","electric_bike","2023-01-07 14:08:42","2023-01-07 14:14:37","","","California Ave & Montrose Ave","15622",41.95,-87.69,41.961068,-87.695439,"member"
"F2547475E7CB7744","electric_bike","2023-01-16 13:21:52","2023-01-16 13:25:28","Franklin St & Monroe St","TA1309000007","Michigan Ave & Madison St","13036",41.879749417,-87.635589123,41.882134,-87.625125,"member"
"4E9D10A4462CEDB2","classic_bike","2023-01-27 07:36:46","2023-01-27 07:44:26","Clark St & Elm St","TA1307000039","Wells St & Hubbard St","TA1307000151",41.902973,-87.63128,41.889906,-87.634266,"member"
"DBB222C48BE48706","electric_bike","2023-01-23 14:06:23","2023-01-23 14:11:46","Broadway & Granville Ave","15571","Clark St & Elmdale Ave","KA1504000148",41.994801164,-87.660257578,41.9908604481256,-87.6697236299515,"member"
"FF15292539AF49E2","classic_bike","2023-01-21 11:08:40","2023-01-21 11:24:52","Halsted St & Clybourn Ave","331","Lincoln Ave & Belmont Ave (Temp)","TA1309000042",41.909668,-87.648128,41.9395316198226,-87.6711143553257,"member"
"132F75B4D5754562","classic_bike","2023-01-10 08:20:06","2023-01-10 08:34:45","Broadway & Berwyn Ave","13109","Sheridan Rd & Loyola Ave","RP-009",41.978353,-87.659753,42.00104377979,-87.6611982433,"member"
"D7CF63F6D1151666","classic_bike","2023-01-08 03:10:08","2023-01-08 03:46:29","Michigan Ave & Lake St","TA1305000011","Michigan Ave & Lake St","TA1305000011",41.886024,-87.624117,41.886024,-87.624117,"casual"
"D2A95A8675FDE74B","electric_bike","2023-01-21 09:00:40","2023-01-21 09:15:28","Stockton Dr & Wrightwood Ave","13276","Green St & Madison St","TA1307000120",41.931315422,-87.638756871,41.8818593280382,-87.6492637395859,"member"
"E7EE3D5EC1128CDD","classic_bike","2023-01-13 15:38:26","2023-01-13 15:41:50","Pine Grove Ave & Irving Park Rd","TA1308000022","Sheridan Rd & Irving Park Rd","13063",41.954383,-87.648043,41.954245,-87.654406,"member"
"736F408A4C2917A1","classic_bike","2023-01-09 17:58:25","2023-01-09 18:02:08","Clark St & Randolph St","TA1305000030","Orleans St & Hubbard St","636",41.884576228,-87.63188991,41.890028,-87.636618,"member"
"2905A8501C986B11","classic_bike","2023-01-13 19:46:50","2023-01-13 20:01:40","Winthrop Ave & Lawrence Ave","TA1308000021","Winthrop Ave & Lawrence Ave","TA1308000021",41.968812,-87.657659,41.968812,-87.657659,"casual"
"3C76B72E95FBB129","classic_bike","2023-01-11 11:30:49","2023-01-11 11:36:20","State St & 33rd St","13216","State St & 35th St","TA1307000129",41.834734,-87.625813,41.8310363140161,-87.6267975568771,"member"
"3101E9C2C5AB3E1F","electric_bike","2023-01-07 01:16:37","2023-01-07 01:19:31","Clark St & Lincoln Ave","13179","Sedgwick St & Webster Ave","13191",41.915801287,-87.634627461,41.922167,-87.638888,"member"
"01FD2416C2655D43","electric_bike","2023-01-04 18:11:42","2023-01-04 18:33:05","","","Fairbanks St & Superior St","18003",41.92,-87.69,41.895748,-87.620104,"member"
"FC55A8EF66885A59","electric_bike","2023-01-04 18:18:44","2023-01-04 18:26:34","Ravenswood Ave & Lawrence Ave","TA1309000066","Clark St & Bryn Mawr Ave","KA1504000151",41.969132066,-87.674236059,41.983593,-87.669154,"member"
"600848B4515BEC39","classic_bike","2023-01-16 08:27:48","2023-01-16 08:30:20","Ashland Ave & Division St","13061","Noble St & Milwaukee Ave","13290",41.90345,-87.667747,41.90068,-87.6626,"casual"
"DC9C36B8271B19FF","electric_bike","2023-01-19 13:47:56","2023-01-19 14:04:22","","","Francisco Ave & Montrose Ave","446",41.94,-87.65,41.96,-87.7,"member"
"A0E8FD68980A9B29","classic_bike","2023-01-09 16:43:47","2023-01-09 16:51:00","Wells St & Hubbard St","TA1307000151","Clark St & Elm St","TA1307000039",41.889906,-87.634266,41.902973,-87.63128,"member"
"025F5E3C6D283B92","classic_bike","2023-01-23 17:47:25","2023-01-23 18:00:59","Michigan Ave & Madison St","13036","Loomis St & Jackson Blvd","13206",41.882134,-87.625125,41.877945,-87.662007,"member"
"A141CFAEE013157D","classic_bike","2023-01-29 07:29:45","2023-01-29 07:46:24","Archer (Damen) Ave & 37th St","18022","Western Ave & 28th St","KA1504000168",41.826712,-87.683144,41.84151770807,-87.6851314409,"casual"
"425FAA82172ECF4C","electric_bike","2023-01-20 13:48:18","2023-01-20 13:59:09","","","","",41.93,-87.72,41.92,-87.7,"member"
"92185A6909850CFC","classic_bike","2023-01-03 16:57:23","2023-01-03 17:05:27","Wabash Ave & Wacker Pl","TA1307000131","Franklin St & Adams St (Temp)","TA1309000008",41.886875,-87.62603,41.8794340914001,-87.6355040073395,"member"
"CC15A940C8FC399A","electric_bike","2023-01-25 10:23:45","2023-01-25 10:26:42","Harper Ave & 59th St","KA1503000070","","",41.788014,-87.5883346666667,41.79,-87.6,"member"
"BBCE22E0E9850329","classic_bike","2023-01-18 13:51:43","2023-01-18 14:00:39","Halsted St & Dickens Ave","13192","Sheffield Ave & Kingsbury St","13154",41.919936,-87.64883,41.910522,-87.653106,"casual"
"985E7EEE97338A7C","electric_bike","2023-01-17 12:49:15","2023-01-17 12:49:43","Elston Ave & Wabansia Ave","TA1309000032","Elston Ave & Wabansia Ave","TA1309000032",41.912914634,-87.664202452,41.912919,-87.664169,"member"
"B0E27F77922F07CD","classic_bike","2023-01-10 07:47:39","2023-01-10 07:52:21","Loomis St & Lexington St","13332","Morgan St & Polk St","TA1307000130",41.8722287322403,-87.6613638550043,41.871737,-87.65103,"member"
"7311D9A398F0CF64","electric_bike","2023-01-09 06:09:00","2023-01-09 06:27:56","Knox Ave & Montrose Ave","592","Broadway & Sheridan Rd","13323",41.960639,-87.74541235,41.952833,-87.649993,"member"
"18C4D14182F3BEA7","classic_bike","2023-01-25 18:42:50","2023-01-25 18:53:31","Damen Ave & Pierce Ave","TA1305000041","Albany Ave & Bloomingdale Ave","15655",41.9093960065,-87.6776919292,41.91402671273,-87.705126462,"member"
"A7077172992479C7","docked_bike","2023-01-06 15:22:57","2023-01-06 15:40:07","Wabash Ave & Cermak Rd","TA1305000001","Indiana Ave & 26th St","TA1307000005",41.852619,-87.626488,41.845687,-87.622481,"casual"
"D6360E5864C4E695","electric_bike","2023-01-03 16:22:40","2023-01-03 16:29:48","Kimbark Ave & 53rd St","TA1309000037","Dorchester Ave & 49th St","KA1503000069",41.799573064,-87.594733477,41.805772,-87.592464,"member"
"32A8231216C09BF3","classic_bike","2023-01-25 16:15:22","2023-01-25 16:20:53","University Ave & 57th St","KA1503000071","Lake Park Ave & 56th St","TA1309000063",41.791478,-87.599861,41.793242,-87.587782,"member"
"98FCB36A6E18CECD","classic_bike","2023-01-17 09:59:54","2023-01-17 10:06:28","Shields Ave & 31st St","KA1503000038","State St & 35th St","TA1307000129",41.838464,-87.635406,41.8310363140161,-87.6267975568771,"member"
"2107A5830DEC7F8B","electric_bike","2023-01-08 15:10:59","2023-01-08 15:51:23","","","","",41.77,-87.6,41.77,-87.59,"casual"
"7E3E7EF3C450BCDC","classic_bike","2023-01-20 20:42:58","2023-01-20 21:04:36","Ashland Ave & Blackhawk St","13224","Stetson Ave & South Water St","TA1308000029",41.907066,-87.667252,41.886835,-87.62232,"member"
"CCCE6C7980DCBDD5","electric_bike","2023-01-23 17:54:32","2023-01-23 17:59:53","Clark St & Ida B Wells Dr","TA1305000009","Orleans St & Merchandise Mart Plaza","TA1305000022",41.875885248,-87.630634665,41.888243,-87.63639,"member"
"DBDA6E63BFE24747","electric_bike","2023-01-21 00:27:16","2023-01-21 00:29:29","New St & Illinois St","TA1306000013","Rush St & Hubbard St","KA1503000044",41.890757084,-87.619165301,41.890173,-87.626185,"casual"
"6E18F190A3F885E7","classic_bike","2023-01-20 17:51:05","2023-01-20 17:53:54","Clinton St & Washington Blvd","WL-012","Canal St & Adams St","13011",41.88338,-87.64117,41.879255,-87.639904,"member"
"59598A6E2584594D","classic_bike","2023-01-02 14:38:20","2023-01-02 15:14:07","Franklin St & Jackson Blvd","TA1305000025","Michigan Ave & Pearson St","13034",41.8777079559,-87.6353211408,41.89766,-87.62351,"casual"
"CFC08DEED821CF30","classic_bike","2023-01-12 15:27:02","2023-01-12 15:33:49","Halsted St & Dickens Ave","13192","Greenview Ave & Fullerton Ave","TA1307000001",41.919936,-87.64883,41.92533,-87.6658,"member"
"084E2EA7EAD01751","classic_bike","2023-01-29 21:27:46","2023-01-29 21:37:29","Wells St & Elm St","KA1504000135","Clark St & Lincoln Ave","13179",41.903222,-87.634324,41.915689,-87.6346,"member"
"4C9A282BB77D47CA","classic_bike","2023-01-10 08:34:58","2023-01-10 09:08:12","Ashland Ave & Wellington Ave","13269","LaSalle St & Jackson Blvd","TA1309000004",41.936083,-87.669807,41.878166,-87.631929,"member"
"588CD5045608E47D","classic_bike","2023-01-10 18:49:48","2023-01-10 18:52:00","Orleans St & Elm St","TA1306000006","Orleans St & Chestnut St (NEXT Apts)","620",41.902924,-87.637715,41.898203,-87.637536,"member"
"B668A2291B6A5E23","classic_bike","2023-01-11 13:02:39","2023-01-11 13:08:50","University Ave & 57th St","KA1503000071","Kimbark Ave & 53rd St","TA1309000037",41.791478,-87.599861,41.799568,-87.594747,"member"
"AAF84E0E4036D180","electric_bike","2023-01-01 12:18:01","2023-01-01 12:21:37","N Paulina St & Lincoln Ave","20253.0","","",41.94,-87.67,41.94,-87.67,"member"
"3757EEA7E6DCA350","electric_bike","2023-01-22 11:49:19","2023-01-22 12:05:40","Ashland Ave & 13th St","13354","Wabash Ave & Wacker Pl","TA1307000131",41.865290403,-87.666464567,41.886875,-87.62603,"member"
"7E5C68761B78118C","electric_bike","2023-01-03 16:19:16","2023-01-03 16:23:32","Clinton St & Lake St","13021","Milwaukee Ave & Grand Ave","13033",41.88576436,-87.641779184,41.891578,-87.648384,"member"
"534838E2E9CCF269","classic_bike","2023-01-16 16:14:29","2023-01-16 16:34:41","Sheridan Rd & Montrose Ave","TA1307000107","Southport Ave & Roscoe St","13071",41.96167,-87.65464,41.943739,-87.66402,"casual"
"CC24E04CD413E677","classic_bike","2023-01-10 12:04:42","2023-01-10 12:09:15","Clark St & Elm St","TA1307000039","Clark St & North Ave","13128",41.902973,-87.63128,41.911974,-87.631942,"member"
"D14079F7B1750724","classic_bike","2023-01-26 09:39:42","2023-01-26 09:50:29","State St & 33rd St","13216","MLK Jr Dr & 29th St","TA1307000139",41.834734,-87.625813,41.842052,-87.617,"member"
"37CE54307AEF4BB6","classic_bike","2023-01-02 18:56:17","2023-01-02 19:15:15","Greenview Ave & Fullerton Ave","TA1307000001","Broadway & Sheridan Rd","13323",41.92533,-87.6658,41.952833,-87.649993,"member"
"1992C63F583B6D9B","electric_bike","2023-01-17 16:07:42","2023-01-17 16:09:16","Franklin St & Lake St","TA1307000111","Orleans St & Hubbard St","636",41.885961056,-87.635582209,41.890028,-87.636618,"member"
"C8394D3C00051772","electric_bike","2023-01-03 19:36:15","2023-01-03 19:39:05","","","","",41.8,-87.59,41.8,-87.59,"member"
"CD63100ED135D36A","classic_bike","2023-01-04 09:36:06","2023-01-04 09:40:41","Lake Park Ave & 56th St","TA1309000063","University Ave & 57th St","KA1503000071",41.793242,-87.587782,41.791478,-87.599861,"member"
"D64AB097FD75C3BC","classic_bike","2023-01-13 14:31:31","2023-01-13 14:49:58","DuSable Lake Shore Dr & Monroe St","13300","Streeter Dr & Grand Ave","13022",41.880958,-87.616743,41.892278,-87.612043,"casual"
"4A62B2D9B103584A","classic_bike","2023-01-20 13:38:09","2023-01-20 13:51:07","Larrabee St & Kingsbury St","TA1306000009","Canal St & Harrison St","13326",41.897764,-87.642884,41.874255,-87.639573,"member"
"531B694A5345D74A","classic_bike","2023-01-10 19:23:30","2023-01-10 19:28:46","DuSable Lake Shore Dr & Diversey Pkwy","TA1309000039","Clark St & Wrightwood Ave","TA1305000014",41.932588,-87.636427,41.929546,-87.643118,"casual"
"ED4B757D82DADE36","classic_bike","2023-01-15 13:42:15","2023-01-15 14:14:46","Kimbark Ave & 53rd St","TA1309000037","Ellis Ave & 58th St","TA1309000011",41.799568,-87.594747,41.788746,-87.601334,"member"
"D55171B10A379FC1","electric_bike","2023-01-19 18:25:44","2023-01-19 18:30:51","","","Clark St & Wrightwood Ave","TA1305000014",41.94,-87.64,41.929546,-87.643118,"member"
"CB00B3C2BC6E9C52","classic_bike","2023-01-23 15:50:00","2023-01-23 16:00:08","Clinton St & Washington Blvd","WL-012","Loomis St & Jackson Blvd","13206",41.88338,-87.64117,41.877945,-87.662007,"member"
"64975B1BCAE1515B","electric_bike","2023-01-17 19:07:07","2023-01-17 19:25:11","Jefferson St & Monroe St","WL-011","Larrabee St & Webster Ave","13193",41.880332589,-87.642804623,41.921822,-87.64414,"casual"
"3838AD1BB3DD329A","classic_bike","2023-01-18 10:09:29","2023-01-18 10:19:12","Ashland Ave & Blackhawk St","13224","Southport Ave & Clybourn Ave","TA1309000030",41.907066,-87.667252,41.920771,-87.663712,"member"
"06F4E3DAAF2EBDCB","classic_bike","2023-01-24 15:16:46","2023-01-24 15:32:54","Clinton St & Roosevelt Rd","WL-008","Dearborn St & Erie St","13045",41.8671177825,-87.6410879593,41.893992,-87.629318,"member"
"CDC8631B96C47E41","classic_bike","2023-01-19 09:32:37","2023-01-19 09:37:04","Wells St & Concord Ln","TA1308000050","Wells St & Elm St","KA1504000135",41.912133,-87.634656,41.903222,-87.634324,"member"
"5458D9475FAA958E","electric_bike","2023-01-04 01:26:23","2023-01-04 01:29:50","Damen Ave & Madison St","13134","Ashland Ave & Lake St","13073",41.881512,-87.674949,41.88592,-87.66717,"member"
"0AEB1F4513742704","electric_bike","2023-01-10 14:27:23","2023-01-10 14:42:13","Cityfront Plaza Dr & Pioneer Ct","13427","Lakeview Ave & Fullerton Pkwy","TA1309000019",41.890479207,-87.621981978,41.925858,-87.638973,"member"
"7BAAAF74A6155850","electric_bike","2023-01-18 17:10:01","2023-01-18 17:18:29","Wells St & Hubbard St","TA1307000151","New St & Illinois St","TA1306000013",41.889973402,-87.634388208,41.8908470406238,-87.6186168193817,"casual"
"554D64B954F1A3C2","electric_bike","2023-01-20 19:48:08","2023-01-20 19:55:41","Milwaukee Ave & Wabansia Ave","13243","California Ave & Altgeld St","15646",41.912592769,-87.681437969,41.92669,-87.697668,"member"
"1FEDE7A59B4073E4","classic_bike","2023-01-03 18:09:54","2023-01-03 18:10:25","Michigan Ave & Washington St","13001","Michigan Ave & Washington St","13001",41.8839840647265,-87.6246839761734,41.8839840647265,-87.6246839761734,"member"
"95C551E01B75ADFD","electric_bike","2023-01-04 08:45:09","2023-01-04 08:53:20","Lincoln Ave & Roscoe St*","chargingstx5","Damen Ave & Leland Ave","TA1307000158",41.943304,-87.670787,41.967094,-87.679028,"member"
"00BB7264419C4C1A","electric_bike","2023-01-02 13:56:43","2023-01-02 14:10:08","Damen Ave & Melrose Ave","13143","Clark St & Newport St","632",41.940515518,-87.67854166,41.94454,-87.654678,"casual"
"32A0089BE54A6BB6","classic_bike","2023-01-07 09:49:47","2023-01-07 10:04:30","Racine Ave & 18th St","13164","Indiana Ave & Roosevelt Rd","SL-005",41.858166,-87.656495,41.867888,-87.623041,"member"
"FE859AAB13190EE4","electric_bike","2023-01-05 16:12:37","2023-01-05 16:23:38","Clinton St & Washington Blvd","WL-012","Halsted St & Willow St","TA1307000166",41.883504272,-87.64158082,41.913865,-87.648755,"member"
"F465DBB653A1314E","classic_bike","2023-01-19 15:27:55","2023-01-19 15:39:17","University Ave & 57th St","KA1503000071","Cornell Ave & Hyde Park Blvd","KA1503000007",41.791478,-87.599861,41.802406,-87.586924,"member"
"5B38522C3FFDDC28","electric_bike","2023-01-27 01:11:03","2023-01-27 01:19:57","","","Clark St & North Ave","13128",41.9,-87.62,41.911974,-87.631942,"member"
"6E77167BEFD817F8","classic_bike","2023-01-29 09:49:06","2023-01-29 09:54:27","Racine Ave & Wrightwood Ave","TA1309000059","Lincoln Ave & Fullerton Ave","TA1309000058",41.928887,-87.658971,41.9241610290676,-87.6463803648949,"casual"
"9E6594FC2D7B76D8","classic_bike","2023-01-16 22:11:36","2023-01-16 23:54:46","Wabash Ave & Grand Ave","TA1307000117","Milwaukee Ave & Grand Ave","13033",41.891466,-87.626761,41.891578,-87.648384,"casual"
"14133B3BDCCB4DBD","docked_bike","2023-01-20 15:20:07","2023-01-20 15:28:07","Morgan St & Polk St","TA1307000130","Financial Pl & Ida B Wells Dr","SL-010",41.871737,-87.65103,41.875024,-87.633094,"casual"
"496815BD45EBE4AC","electric_bike","2023-01-03 16:07:14","2023-01-03 16:14:30","","","Larrabee St & Kingsbury St","TA1306000009",41.89,-87.62,41.897764,-87.642884,"member"
"66087C93A2C89F0C","electric_bike","2023-01-18 12:27:17","2023-01-18 12:38:30","","","900 W Harrison St","13028",41.9,-87.65,41.874754,-87.649807,"member"
"FFABD321E06B4728","classic_bike","2023-01-26 20:23:08","2023-01-26 20:40:33","Wolcott Ave & Polk St","TA1309000064","Halsted St & Maxwell St","TA1309000001",41.871262,-87.673688,41.864883,-87.647071,"member"
"A6A5F854485F52EA","classic_bike","2023-01-17 14:39:06","2023-01-17 14:52:44","Shields Ave & 28th Pl","15443","McCormick Place","TA1305000004",41.842733,-87.635491,41.8513751729,-87.6188346489,"member"
"FA06021DB4139E6C","classic_bike","2023-01-23 10:50:26","2023-01-23 10:58:40","Carpenter St & Huron St","13196","Sheffield Ave & Kingsbury St","13154",41.894556,-87.653449,41.910522,-87.653106,"member"
"1826893577E970AB","electric_bike","2023-01-07 19:04:01","2023-01-07 19:10:40","Loomis St & Lexington St","13332","Desplaines St & Jackson Blvd","15539",41.872141838,-87.661307931,41.8781189009123,-87.6439476013184,"member"
"46B0BDDE9C38177D","electric_bike","2023-01-19 20:21:28","2023-01-19 20:25:25","Montrose Harbor","TA1308000012","","",41.96396482,-87.638216257,41.96,-87.64,"member"
"80A653B719B9E1F8","classic_bike","2023-01-21 09:57:16","2023-01-21 10:26:45","Wood St & 35th St","KA1503000066","Racine Ave & 35th St","15446",41.83010465416,-87.6702983089,41.830688564721,-87.6562106609344,"member"
"C2DDE7A805A1BAF5","classic_bike","2023-01-24 13:10:44","2023-01-24 13:15:16","Ellis Ave & 60th St","KA1503000014","University Ave & 57th St","KA1503000071",41.78509714636,-87.6010727606,41.791478,-87.599861,"casual"
"D09C8C23BC51B769","electric_bike","2023-01-21 08:12:12","2023-01-21 08:18:41","Fairbanks Ct & Grand Ave","TA1305000003","Clark St & Elm St","TA1307000039",41.891909838,-87.620623589,41.902973,-87.63128,"member"
"1E29BBB850B3BE9A","classic_bike","2023-01-23 09:34:25","2023-01-23 09:39:58","Clark St & Bryn Mawr Ave","KA1504000151","Clark St & Winnemac Ave","TA1309000035",41.983593,-87.669154,41.973347640473,-87.6678554713726,"member"
"08CBDC46AB35BEFD","classic_bike","2023-01-11 08:52:59","2023-01-11 09:01:53","Shore Dr & 55th St","TA1308000009","University Ave & 57th St","KA1503000071",41.795212,-87.580715,41.791478,-87.599861,"member"
"0AA7ED321CA37646","electric_bike","2023-01-24 08:24:24","2023-01-24 08:31:11","Kedzie Ave & Milwaukee Ave","13085","Elston Ave & George St","472",41.929680347,-87.708028674,41.93,-87.69,"casual"
"B8F2204F269FC99C","electric_bike","2023-01-08 18:46:46","2023-01-08 18:55:13","Damen Ave & Wellington Ave","13268","Milwaukee Ave & Rockwell St","13242",41.935885668,-87.678463697,41.9201955620057,-87.6926591992378,"member"
"12219F2AF54B5FFE","electric_bike","2023-01-15 17:26:10","2023-01-15 17:30:21","LaSalle St & Illinois St","13430","Milwaukee Ave & Grand Ave","13033",41.890815854,-87.631570935,41.891578,-87.648384,"member"
"54C684231F686C61","classic_bike","2023-01-25 19:25:29","2023-01-25 19:29:23","Franklin St & Illinois St","RN-","Clinton St & Lake St","13021",41.8910233102519,-87.6354798674583,41.885637,-87.641823,"member"
"2FA550409EEBA644","classic_bike","2023-01-20 15:45:02","2023-01-20 15:57:47","Elizabeth St & Fulton St","13197","Noble St & Milwaukee Ave","13290",41.8867107731844,-87.6596572995186,41.90068,-87.6626,"casual"
"BF0C3583B059476C","classic_bike","2023-01-12 21:20:17","2023-01-12 21:25:32","Sheffield Ave & Webster Ave","TA1309000033","Racine Ave & Wrightwood Ave","TA1309000059",41.92154,-87.653818,41.928887,-87.658971,"member"
"96D6E3677964B4E6","electric_bike","2023-01-10 14:07:38","2023-01-10 14:14:28","Pulaski Rd & 51st St","343","","",41.8,-87.72,41.78,-87.73,"member"
"48EEB69DB944888C","classic_bike","2023-01-10 13:30:54","2023-01-10 13:41:10","Delano Ct & Roosevelt Rd","KA1706005007","Morgan Ave & 14th Pl","TA1306000002",41.867491,-87.63219,41.862378,-87.651062,"member"
"421E9AFC232F3C75","electric_bike","2023-01-10 14:14:50","2023-01-10 14:25:52","","","","",41.79,-87.72,41.79,-87.68,"casual"
"99DE9FEFFD708EE1","classic_bike","2023-01-18 06:56:09","2023-01-18 07:11:07","LaSalle St & Jackson Blvd","TA1309000004","St. Clair St & Erie St","13016",41.878166,-87.631929,41.8943451374243,-87.6227983832359,"member"
"5FECF39BAE8D7897","electric_bike","2023-01-06 12:32:51","2023-01-06 12:35:56","Broadway & Cornelia Ave","13278","Broadway & Sheridan Rd","13323",41.945523143,-87.64639926,41.952833,-87.649993,"member"
"32B88EC9D0E2902C","electric_bike","2023-01-22 20:00:10","2023-01-22 20:06:17","","","Ellis Ave & 60th St","KA1503000014",41.79,-87.59,41.78509714636,-87.6010727606,"member"
"8535A1714C6E3007","classic_bike","2023-01-02 15:30:30","2023-01-02 15:37:53","Ogden Ave & Race Ave","13194","Ada St & Washington Blvd","13353",41.891795,-87.658751,41.88283,-87.661206,"member"
"DFEF771C86C6ADB8","classic_bike","2023-01-18 19:53:25","2023-01-18 19:57:08","Halsted St & Roosevelt Rd","TA1305000017","May St & Taylor St","13160",41.867324,-87.648625,41.8694821,-87.6554864,"member"
"0C862ADF500608C1","classic_bike","2023-01-28 14:52:34","2023-01-28 15:06:54","Burling St & Diversey Pkwy","TA1309000036","Ashland Ave & Wellington Ave","13269",41.93314,-87.64776,41.936083,-87.669807,"member"
"DDDCF14173731123","classic_bike","2023-01-16 12:45:46","2023-01-16 12:56:08","Ellis Ave & 58th St","TA1309000011","Kimbark Ave & 53rd St","TA1309000037",41.788746,-87.601334,41.799568,-87.594747,"casual"
"2B7BCC60D5E20638","classic_bike","2023-01-17 21:55:16","2023-01-17 22:01:36","Southport Ave & Wrightwood Ave","TA1307000113","Sheffield Ave & Webster Ave","TA1309000033",41.928773,-87.663913,41.92154,-87.653818,"member"
"857967E8B2E75634","classic_bike","2023-01-30 06:53:50","2023-01-30 06:58:19","Michigan Ave & Washington St","13001","Dearborn St & Monroe St","TA1305000006",41.8839840647265,-87.6246839761734,41.881319815,-87.6295209193,"member"
"23549AB3ED687B2F","electric_bike","2023-01-11 16:08:24","2023-01-11 16:18:38","Mies van der Rohe Way & Chicago Ave","13338","Larrabee St & Armitage Ave","TA1309000006",41.896888137,-87.621886849,41.918084,-87.643749,"member"
"BB0B9E2AEB83FA33","electric_bike","2023-01-07 13:25:43","2023-01-07 13:38:32","Western Ave & Ardmore Ave","464","","",41.99,-87.69,41.99,-87.66,"member"
"6BB8F0DF56396D42","electric_bike","2023-01-17 07:48:48","2023-01-17 07:49:00","Pulaski Rd & 51st St","343","Pulaski Rd & 51st St","343",41.8,-87.72,41.8,-87.72,"casual"
"15F3B6B63F043624","electric_bike","2023-01-21 02:17:30","2023-01-21 02:26:29","Wells St & Evergreen Ave","TA1308000049","St. Clair St & Erie St","13016",41.906744242,-87.635032654,41.8943451374243,-87.6227983832359,"casual"
"2590545B2402C785","classic_bike","2023-01-13 08:42:53","2023-01-13 08:53:04","Wabash Ave & 9th St","TA1309000010","Clark St & Randolph St","TA1305000030",41.870769,-87.625734,41.884576228,-87.63188991,"member"
"B07C9628FAAF27B3","electric_bike","2023-01-04 09:17:32","2023-01-04 09:21:14","Wells St & Hubbard St","TA1307000151","Desplaines St & Randolph St","15535",41.889903784,-87.634411812,41.88461618962,-87.6445705849,"member"
"0C3E4F0A59174F24","classic_bike","2023-01-06 11:16:25","2023-01-06 11:21:14","Orleans St & Merchandise Mart Plaza","TA1305000022","Clinton St & Lake St","13021",41.888243,-87.63639,41.885637,-87.641823,"casual"
"A3CA3770E27227D4","electric_bike","2023-01-09 12:26:20","2023-01-09 12:29:56","Peoria St & Jackson Blvd","13158","Canal St & Adams St","13011",41.877656221,-87.649510384,41.879255,-87.639904,"casual"
"5F825204006410BB","classic_bike","2023-01-07 13:53:14","2023-01-07 13:55:53","Southport Ave & Roscoe St","13071","Southport Ave & Waveland Ave","13235",41.943739,-87.66402,41.94815,-87.66394,"member"
"AE87CE25AD826F78","classic_bike","2023-01-10 07:16:16","2023-01-10 07:24:12","Shedd Aquarium","15544","Michigan Ave & 8th St","623",41.86722595682,-87.6153553902,41.872773,-87.623981,"member"
"92C2635C143726D8","electric_bike","2023-01-02 10:43:06","2023-01-02 10:50:31","Western Ave & Fillmore St","644","Wood St & Taylor St (Temp)","13285",41.8686283333333,-87.6862768333333,41.8692652184382,-87.6737308502197,"member"
"0841E38C9BF1065E","classic_bike","2023-01-02 14:58:15","2023-01-02 15:01:39","Ellis Ave & 55th St","KA1504000076","Ellis Ave & 60th St","KA1503000014",41.79430062054,-87.6014497734,41.78509714636,-87.6010727606,"member"
"5F37B013CA3DE84D","classic_bike","2023-01-07 08:28:17","2023-01-07 08:41:59","Clark St & Winnemac Ave","TA1309000035","Lincoln Ave & Belle Plaine Ave","TA1309000026",41.973347640473,-87.6678554713726,41.9560035507855,-87.6801614463329,"member"
"AE658C29FD07F6A4","classic_bike","2023-01-06 13:32:42","2023-01-06 13:41:27","Clark St & Armitage Ave","13146","Halsted St & Willow St","TA1307000166",41.918306,-87.636282,41.913865,-87.648755,"member"
"0094141FEF890D18","electric_bike","2023-01-10 12:22:10","2023-01-10 12:59:59","Dearborn St & Adams St","TA1305000005","Dearborn St & Adams St","TA1305000005",41.878884792,-87.629396081,41.8793563587,-87.6297910363,"member"
"8357656A1196CB98","classic_bike","2023-01-13 15:54:43","2023-01-13 16:13:58","Green St & Madison St","TA1307000120","Michigan Ave & Pearson St","13034",41.8818593280382,-87.6492637395859,41.89766,-87.62351,"member"
"1D9BA8C7F5553054","electric_bike","2023-01-04 08:33:02","2023-01-04 08:46:20","Artesian Ave & Hubbard St","15664","Morgan St & Lake St*","chargingstx4",41.8895303333333,-87.6881016666667,41.8854917062691,-87.6522892713547,"member"
"61D01CAF84FF4368","classic_bike","2023-01-09 08:48:20","2023-01-09 08:52:46","Clark St & Randolph St","TA1305000030","Rush St & Hubbard St","KA1503000044",41.884576228,-87.63188991,41.890173,-87.626185,"member"
"DF8C0BBBA627351A","classic_bike","2023-01-13 07:09:08","2023-01-13 07:16:15","Wells St & Polk St","SL-011","Canal St & Madison St","13341",41.8727315422631,-87.6335164904594,41.882409,-87.639767,"casual"
"35CCF0682000E7A4","electric_bike","2023-01-11 14:12:26","2023-01-11 14:35:31","Morgan St & Lake St*","chargingstx4","Milwaukee Ave & Fullerton Ave","428",41.8854496666667,-87.6523425,41.92,-87.7,"member"
"BA0C5F1B7B3895AE","classic_bike","2023-01-13 12:45:35","2023-01-13 13:07:20","Dearborn St & Monroe St","TA1305000006","Wells St & Concord Ln","TA1308000050",41.881319815,-87.6295209193,41.912133,-87.634656,"member"
"5DBF86B628FF8DF3","electric_bike","2023-01-19 12:07:40","2023-01-19 12:20:06","","","","",41.88,-87.66,41.87,-87.66,"member"
"55778287FCDD77E1","classic_bike","2023-01-10 07:27:36","2023-01-10 08:01:41","Harper Ave & 59th St","KA1503000070","Wabash Ave & Roosevelt Rd","TA1305000002",41.78794281287,-87.5883151702,41.867227,-87.625961,"member"
"72B74FD7BD504012","docked_bike","2023-01-08 12:50:41","2023-01-08 13:01:26","Buckingham Fountain","15541","Shedd Aquarium","15544",41.876423,-87.620339,41.867226,-87.615355,"casual"
"E71814B7F9FADBB4","electric_bike","2023-01-12 19:31:53","2023-01-12 19:40:51","Clark St & Winnemac Ave","TA1309000035","Clark St & Elmdale Ave","KA1504000148",41.973331451,-87.667773128,41.9908604481256,-87.6697236299515,"casual"
"C5A051648981FE89","electric_bike","2023-01-29 18:19:58","2023-01-29 18:43:41","","","","",41.93,-87.71,41.95,-87.65,"member"
"382EC2A9064A6D43","electric_bike","2023-01-17 13:21:08","2023-01-17 13:29:35","Paulina St & Flournoy St","KA1504000104","Clinton St & Jackson Blvd","638",41.873058438,-87.668907046,41.8783166118307,-87.6409810781479,"casual"
"8EFAF31E66E45322","electric_bike","2023-01-23 18:15:38","2023-01-23 18:22:29","MLK Jr Dr & 29th St","TA1307000139","State St & 35th St","TA1307000129",41.842027426,-87.616962433,41.8310363140161,-87.6267975568771,"member"
"40698533054BC2D3","classic_bike","2023-01-09 07:39:06","2023-01-09 07:44:59","Clark St & Drummond Pl","TA1307000142","Clark St & Armitage Ave","13146",41.931248,-87.644336,41.918306,-87.636282,"member"
"A90607D6130B5AEA","electric_bike","2023-01-04 12:40:44","2023-01-04 12:45:32","Canal St & Adams St","13011","Wabash Ave & Adams St","KA1503000015",41.879306555,-87.640107274,41.87947235235,-87.6256886059,"member"
"EA5CB10AD83D1C96","classic_bike","2023-01-08 17:52:15","2023-01-08 17:59:50","Kimbark Ave & 53rd St","TA1309000037","Ellis Ave & 60th St","KA1503000014",41.799568,-87.594747,41.78509714636,-87.6010727606,"member"
"7DF6AB90F4805763","electric_bike","2023-01-23 21:59:28","2023-01-23 22:09:53","Clark St & Berwyn Ave","KA1504000146","","",41.978010654,-87.668022871,41.95,-87.65,"member"
"A6AE4A66F82011C3","electric_bike","2023-01-17 18:19:38","2023-01-17 18:24:45","Pulaski Rd & 21st St","331.0","","",41.85,-87.72,41.84,-87.73,"casual"
"3A678A1C3B0ABE3E","classic_bike","2023-01-26 07:03:28","2023-01-26 07:35:12","Sheridan Rd & Irving Park Rd","13063","Clark St & Lake St","KA1503000012",41.954245,-87.654406,41.88602082773,-87.6308760584,"member"
"8B37F56EC09280D6","electric_bike","2023-01-09 12:05:36","2023-01-09 12:14:37","Wilton Ave & Belmont Ave","TA1307000134","Sheridan Rd & Montrose Ave","TA1307000107",41.940095425,-87.652972102,41.96167,-87.65464,"member"
"34B179B5F0613C09","classic_bike","2023-01-23 20:49:40","2023-01-23 20:55:58","State St & Chicago Ave","21544","Larrabee St & Kingsbury St","TA1306000009",41.8966172004075,-87.628578543663,41.897764,-87.642884,"member"
"8526142BC76DCA3C","classic_bike","2023-01-23 11:24:00","2023-01-23 13:11:39","LaSalle St & Jackson Blvd","TA1309000004","Clark St & Randolph St","TA1305000030",41.878166,-87.631929,41.884576228,-87.63188991,"casual"
"B9F1E731A004305A","classic_bike","2023-01-31 13:26:47","2023-01-31 13:28:05","State St & Harrison St","SL-007","Federal St & Polk St","SL-008",41.874053,-87.627716,41.87207763285,-87.6295437729,"member"
"7A3F6A07EE77633E","electric_bike","2023-01-24 18:56:31","2023-01-24 19:05:14","Broadway & Thorndale Ave","15575","Clark St & Berwyn Ave","KA1504000146",41.989794493,-87.660140038,41.9780306224866,-87.668564915657,"member"
"DA9EC6C620954584","classic_bike","2023-01-28 10:41:06","2023-01-28 10:44:28","Orleans St & Chestnut St (NEXT Apts)","620","Larrabee St & Kingsbury St","TA1306000009",41.898203,-87.637536,41.897764,-87.642884,"member"
"B670B88499085765","electric_bike","2023-01-19 09:04:01","2023-01-19 09:08:28","Orleans St & Merchandise Mart Plaza","TA1305000022","","",41.888002515,-87.636394024,41.88,-87.64,"casual"
"23E30D92378A2943","electric_bike","2023-01-20 16:57:08","2023-01-20 17:24:18","Paulina St & Flournoy St","KA1504000104","","",41.8731771666667,-87.6690596666667,41.92,-87.68,"member"
"CE6CB2898857831C","electric_bike","2023-01-16 10:04:49","2023-01-16 10:26:47","Wentworth Ave & Cermak Rd","13075","Burnham Harbor","15545",41.85311532,-87.631882668,41.857411787074,-87.6137915253639,"member"
"B74B232F809BDB33","classic_bike","2023-01-31 06:10:30","2023-01-31 06:15:35","Canal St & Madison St","13341","Clark St & Ida B Wells Dr","TA1305000009",41.882409,-87.639767,41.8759326655,-87.6305845355,"member"
"B3EEA2550B1E8026","classic_bike","2023-01-13 10:26:32","2023-01-13 10:34:00","Orleans St & Merchandise Mart Plaza","TA1305000022","Dearborn St & Monroe St","TA1305000006",41.888243,-87.63639,41.881319815,-87.6295209193,"member"
"E407C0C73551CF80","classic_bike","2023-01-12 17:23:14","2023-01-12 18:08:40","Daley Center Plaza","TA1306000010","Southport Ave & Clark St","TA1308000047",41.884241,-87.629634,41.957081,-87.664199,"member"
"20272F6EEDBB845B","classic_bike","2023-01-06 16:48:10","2023-01-06 16:57:12","Aberdeen St & Randolph St","18062","May St & Taylor St","13160",41.884114,-87.654264,41.8694821,-87.6554864,"member"
"6656DCA7A366AFC1","electric_bike","2023-01-14 14:48:36","2023-01-14 14:57:31","Desplaines St & Randolph St","15535","LaSalle Dr & Huron St","KP1705001026",41.884637833,-87.644320726,41.894877,-87.632326,"member"
"5C58A142B8A3C2ED","electric_bike","2023-01-25 13:56:28","2023-01-25 13:59:26","State St & 33rd St","13216","Calumet Ave & 33rd St","13217",41.834756851,-87.625792742,41.8349,-87.61793,"member"
"3A0641C0A8A88C0C","classic_bike","2023-01-05 14:39:59","2023-01-05 14:45:09","Ellis Ave & 55th St","KA1504000076","Ellis Ave & 60th St","KA1503000014",41.79430062054,-87.6014497734,41.78509714636,-87.6010727606,"member"
"1E36281EEA3EF5C6","classic_bike","2023-01-15 02:04:36","2023-01-15 02:11:44","Clifton Ave & Armitage Ave","TA1307000163","Racine Ave & Wrightwood Ave","TA1309000059",41.918216,-87.656936,41.928887,-87.658971,"casual"
"3A3DA84B17335530","electric_bike","2023-01-11 12:53:29","2023-01-11 12:57:10","Rockwell St & Fletcher St","435","Western Ave & Roscoe St","15634",41.94,-87.69,41.943034,-87.687288,"member"
"F279CAB41EB85970","electric_bike","2023-01-12 08:23:36","2023-01-12 08:28:08","Halsted St & Dickens Ave","13192","Clark St & Wrightwood Ave","TA1305000014",41.920159936,-87.648896694,41.929546,-87.643118,"member"
"CAD58DE982C0134E","electric_bike","2023-01-19 10:39:00","2023-01-19 10:45:47","Springfield Ave & 47th St","344","Pulaski Rd & 51st St","343",41.81,-87.72,41.8,-87.72,"member"
"129A273E964049B3","classic_bike","2023-01-11 09:48:43","2023-01-11 09:54:53","Larrabee St & Menomonee St","TA1306000007","Clifton Ave & Armitage Ave","TA1307000163",41.91468,-87.64332,41.918216,-87.656936,"member"
"F874A67F0786332C","classic_bike","2023-01-24 18:47:03","2023-01-24 18:49:30","Desplaines St & Randolph St","15535","Desplaines St & Kinzie St","TA1306000003",41.88461618962,-87.6445705849,41.888716036,-87.6444478533,"member"
"0114AA01B3DD6938","classic_bike","2023-01-05 16:56:02","2023-01-05 17:13:02","California Ave & Milwaukee Ave","13084","St. Louis Ave & Fullerton Ave","KA1504000090",41.922695,-87.697153,41.9248155968119,-87.714495062828,"casual"
"8BF860B4AAC886D2","electric_bike","2023-01-28 06:33:00","2023-01-28 06:39:29","Rhodes Ave & 32nd St","13215","State St & 33rd St","13216",41.836739,-87.6133288333333,41.834734,-87.625813,"member"
"A6282632E9F8EED1","classic_bike","2023-01-01 14:00:06","2023-01-01 14:14:24","Ashland Ave & Wellington Ave","13269","Sheffield Ave & Fullerton Ave","TA1306000016",41.936083,-87.669807,41.9256018819,-87.6537080423,"member"
"2B8A9BB0F9038783","classic_bike","2023-01-20 17:00:59","2023-01-20 17:08:38","Clark St & Schiller St","TA1309000024","Sedgwick St & Webster Ave","13191",41.907993,-87.631501,41.922167,-87.638888,"member"
"C2393987CBB1A09E","electric_bike","2023-01-19 18:19:56","2023-01-19 18:31:00","Clinton St & Jackson Blvd","638","Halsted St & North Branch St","KA1504000117",41.878556728,-87.641580701,41.899390285497,-87.6485449075699,"casual"
"55189967125DA9D7","electric_bike","2023-01-22 11:22:09","2023-01-22 11:26:21","Clinton St & Washington Blvd","WL-012","Racine Ave & Washington Blvd","654",41.88328898,-87.641091824,41.883073,-87.656952,"member"
"B2F792D9EE0DBA54","classic_bike","2023-01-04 22:51:57","2023-01-04 22:55:56","State St & Kinzie St","13050","Dearborn St & Erie St","13045",41.8893754666317,-87.6270765066147,41.893992,-87.629318,"member"
"42DAF3C99043F75E","electric_bike","2023-01-18 12:35:36","2023-01-18 12:41:22","Sheridan Rd & Loyola Ave","RP-009","Clark St & Lunt Ave","KA1504000162",42.001048088,-87.661251783,42.0090111805808,-87.6741117238998,"member"
"DF529420EC9EAC7D","classic_bike","2023-01-24 06:45:54","2023-01-24 06:56:08","Field Blvd & South Water St","15534","St. Clair St & Erie St","13016",41.88634906269,-87.6175165471,41.8943451374243,-87.6227983832359,"casual"
"4ED265AEFE6FE784","classic_bike","2023-01-10 00:31:46","2023-01-10 00:32:24","Wabash Ave & Cermak Rd","TA1305000001","Wabash Ave & Cermak Rd","TA1305000001",41.852619,-87.626488,41.852619,-87.626488,"member"
"F6FBD7056DAED0CC","electric_bike","2023-01-29 17:13:44","2023-01-29 17:42:08","Wabash Ave & Grand Ave","TA1307000117","Michigan Ave & Madison St","13036",41.891248465,-87.626449943,41.882134,-87.625125,"member"
"69A5C444447A6D46","classic_bike","2023-01-13 14:00:16","2023-01-13 14:10:53","Desplaines St & Jackson Blvd","15539","Loomis St & Jackson Blvd","13206",41.8781189009123,-87.6439476013184,41.877945,-87.662007,"member"
"22D022CDB0F9678C","classic_bike","2023-01-09 17:33:47","2023-01-09 17:38:08","Morgan St & Polk St","TA1307000130","Loomis St & Lexington St","13332",41.871737,-87.65103,41.8722287322403,-87.6613638550043,"member"
"DA1D097C690F393E","electric_bike","2023-01-24 09:02:07","2023-01-24 09:03:09","Clinton St & Madison St","TA1305000032","Clinton St & Madison St","TA1305000032",41.882873893,-87.641275287,41.882760763,-87.641311526,"casual"
"9107F3AEE59B5DD5","electric_bike","2023-01-24 16:06:34","2023-01-24 16:09:21","Public Rack - Harold Washington Park","766","","",41.8,-87.58,41.8,-87.58,"member"
"50145118FBDC038E","electric_bike","2023-01-25 16:54:02","2023-01-25 17:01:01","Artesian Ave & Hubbard St","15664","California Ave & Cortez St","17660",41.889462352,-87.688064933,41.900363,-87.696704,"member"
"C11BE34A84E0BE0E","electric_bike","2023-01-16 11:41:27","2023-01-16 11:46:23","St. Clair St & Erie St","13016","State St & Randolph St","TA1305000029",41.894606709,-87.62257278,41.8846210725794,-87.6278342306614,"member"
"9D1C5A44DCBA5256","classic_bike","2023-01-08 13:59:36","2023-01-08 14:02:59","Kimbark Ave & 53rd St","TA1309000037","Ellis Ave & 53rd St","KA1503000052",41.799568,-87.594747,41.79933626261,-87.6009581145,"member"
"5FAA2FF9E791F0C0","classic_bike","2023-01-13 10:53:34","2023-01-13 10:58:38","Halsted St & Roosevelt Rd","TA1305000017","Loomis St & Lexington St","13332",41.867324,-87.648625,41.8722287322403,-87.6613638550043,"member"
"A3BEF2D54150D2C4","classic_bike","2023-01-11 17:23:28","2023-01-11 17:41:39","Indiana Ave & Roosevelt Rd","SL-005","McClurg Ct & Erie St","KA1503000041",41.867888,-87.623041,41.894503,-87.617854,"member"
"9968193AC01750D2","classic_bike","2023-01-09 20:33:51","2023-01-09 20:41:06","Ashland Ave & 13th St","13354","Morgan St & Polk St","TA1307000130",41.865234,-87.666507,41.871737,-87.65103,"member"
"135A9F259079F53E","electric_bike","2023-01-27 14:02:48","2023-01-27 14:07:55","Broadway & Waveland Ave","13325","Clarendon Ave & Junior Ter","13389",41.949104071,-87.648561358,41.961004,-87.649603,"member"
"1B08E9287817EB78","classic_bike","2023-01-05 06:31:10","2023-01-05 06:38:41","LaSalle St & Jackson Blvd","TA1309000004","Green St & Madison St","TA1307000120",41.878166,-87.631929,41.8818593280382,-87.6492637395859,"casual"
"08DB56E4DF6D9160","electric_bike","2023-01-03 12:13:46","2023-01-03 12:15:55","","","Michigan Ave & Lake St","TA1305000011",41.89,-87.62,41.886024,-87.624117,"casual"
"FEE4F9991E0176D0","classic_bike","2023-01-13 13:13:40","2023-01-13 13:20:32","Aberdeen St & Jackson Blvd","13157","Franklin St & Jackson Blvd","TA1305000025",41.87772613,-87.65478743,41.8777079559,-87.6353211408,"member"
"AE3B616CA7233FBE","electric_bike","2023-01-14 03:31:05","2023-01-14 03:44:06","Public Rack - Kostner Ave & Armitage Ave","866","Public Rack - Kostner Ave & Armitage Ave","866",41.92,-87.74,41.92,-87.74,"member"
"C57D6452CD2FB5C5","classic_bike","2023-01-25 07:57:28","2023-01-25 07:59:16","California Ave & Division St","13256","California Ave & Cortez St","17660",41.903029,-87.697474,41.900363,-87.696704,"member"
"A9CCC08D54D90A4C","classic_bike","2023-01-05 08:55:55","2023-01-05 09:25:04","DuSable Lake Shore Dr & Wellington Ave","TA1307000041","Michigan Ave & Lake St","TA1305000011",41.9366884494997,-87.6368290185928,41.886024,-87.624117,"member"
"4CDA912A23D50AAA","classic_bike","2023-01-05 10:17:51","2023-01-05 10:26:17","Clark St & Lake St","KA1503000012","St. Clair St & Erie St","13016",41.88602082773,-87.6308760584,41.8943451374243,-87.6227983832359,"member"
"0425CB121D6E2FC0","electric_bike","2023-01-02 09:14:20","2023-01-02 09:18:07","Wilton Ave & Belmont Ave","TA1307000134","Sheffield Ave & Wrightwood Ave","TA1309000023",41.9401563333333,-87.6529795,41.928712,-87.653833,"member"
"186C1AB34753A855","electric_bike","2023-01-30 15:17:02","2023-01-30 15:17:12","Dearborn St & Monroe St","TA1305000006","","",41.880717516,-87.629233718,41.88,-87.63,"member"
"973B493E673B78DD","electric_bike","2023-01-12 11:21:20","2023-01-12 11:24:42","Public Rack - Spaulding Ave & Evergreen Ave","513","Troy St & North Ave","15653",41.91,-87.71,41.90976930169,-87.7052804871,"member"
"D95A9CEEF2104D84","electric_bike","2023-01-05 14:03:28","2023-01-05 14:09:55","","","","",41.78,-87.61,41.8,-87.6,"member"
"127A96626991AEEB","classic_bike","2023-01-20 16:30:38","2023-01-20 16:40:14","Franklin St & Monroe St","TA1309000007","Kingsbury St & Erie St","13265",41.880317,-87.635185,41.8938080562436,-87.6416972279549,"member"
"DBE813A8E4EFF06A","electric_bike","2023-01-06 15:53:58","2023-01-06 16:00:58","St. Clair St & Erie St","13016","Orleans St & Hubbard St","636",41.894355536,-87.623016357,41.890028,-87.636618,"member"
"21D3C01937E805AC","classic_bike","2023-01-21 13:20:02","2023-01-21 13:39:24","Lincoln Ave & Belmont Ave (Temp)","TA1309000042","Halsted St & Clybourn Ave","331",41.9395316198226,-87.6711143553257,41.909668,-87.648128,"member"
"97410F0EA2EB06C9","classic_bike","2023-01-09 15:27:07","2023-01-09 15:33:42","Benson Ave & Church St","596","Sheridan Rd & Noyes St (NU)","604",42.048214,-87.683485,42.058239,-87.677432,"member"
"457F2556E292AD15","classic_bike","2023-01-21 16:08:23","2023-01-21 16:14:03","Sedgwick St & North Ave","TA1307000038","Halsted St & Clybourn Ave","331",41.911386,-87.638677,41.909668,-87.648128,"member"
"D03F07D0454095A9","electric_bike","2023-01-23 18:23:11","2023-01-23 18:25:34","","","","",41.95,-87.68,41.96,-87.68,"casual"
"9BD05BF00F7EF78B","classic_bike","2023-01-23 13:20:00","2023-01-23 13:24:04","McClurg Ct & Erie St","KA1503000041","Mies van der Rohe Way & Chicago Ave","13338",41.894503,-87.617854,41.8969446263708,-87.6217576861382,"member"
"FC7E97A0743E5C0D","electric_bike","2023-01-12 08:15:56","2023-01-12 08:18:41","Clark St & Wellington Ave","TA1307000136","Halsted St & Roscoe St","TA1309000025",41.936516404,-87.647618532,41.94367,-87.64895,"member"
"C1429488D2A3328F","classic_bike","2023-01-23 18:17:04","2023-01-23 18:22:14","Clifton Ave & Armitage Ave","TA1307000163","Sheffield Ave & Kingsbury St","13154",41.918216,-87.656936,41.910522,-87.653106,"member"
"13DBED49376A9F9A","docked_bike","2023-01-11 19:24:49","2023-01-11 19:28:17","Halsted St & Roosevelt Rd","TA1305000017","May St & Taylor St","13160",41.867324,-87.648625,41.869482,-87.655486,"casual"
"2CDD5FA85D9E0D31","classic_bike","2023-01-26 20:02:11","2023-01-26 20:06:15","Ellis Ave & 55th St","KA1504000076","Ellis Ave & 58th St","TA1309000011",41.79430062054,-87.6014497734,41.788746,-87.601334,"member"
"5AC4ECDB50F24A19","electric_bike","2023-01-18 20:06:02","2023-01-18 20:21:09","St. Clair St & Erie St","13016","Ada St & Washington Blvd","13353",41.893963099,-87.622443914,41.88283,-87.661206,"casual"
"68A06339696DFAD3","electric_bike","2023-01-26 06:45:37","2023-01-26 06:52:05","Canal St & Adams St","13011","Morgan St & Polk St","TA1307000130",41.8796758333333,-87.6398631666667,41.871737,-87.65103,"member"
"1CEE7FE523A3C525","classic_bike","2023-01-08 13:34:31","2023-01-08 13:44:47","Broadway & Belmont Ave","13277","Sheffield Ave & Fullerton Ave","TA1306000016",41.940106,-87.645451,41.9256018819,-87.6537080423,"member"
"7935D561DE246E81","electric_bike","2023-01-18 17:37:10","2023-01-18 17:40:28","Wells St & Elm St","KA1504000135","Wells St & Huron St","TA1306000012",41.903062701,-87.634498239,41.894722,-87.634362,"member"
"930BE00C6CF5CD30","classic_bike","2023-01-02 10:54:43","2023-01-02 11:05:34","Kingsbury St & Kinzie St","KA1503000043","Clark St & Elm St","TA1307000039",41.88917683258,-87.6385057718,41.902973,-87.63128,"casual"
"20E5EF0D0587460C","electric_bike","2023-01-13 19:18:51","2023-01-13 19:33:34","","","","",41.91,-87.69,41.93,-87.71,"member"
"88A911594E975A41","electric_bike","2023-01-01 00:33:57","2023-01-01 00:42:49","State St & Pearson St","TA1307000061","Clark St & Armitage Ave","13146",41.897414684,-87.628758669,41.918306,-87.636282,"member"
"A39A2975128B602E","electric_bike","2023-01-01 19:38:18","2023-01-01 19:43:26","Public Rack - Karlov Ave & Kamerling Ave","520","Central Park & Augusta Blvd","370",41.91,-87.73,41.9,-87.72,"casual"
"593650000CF892D8","electric_bike","2023-01-18 12:39:26","2023-01-18 12:45:15","Kimbark Ave & 53rd St","TA1309000037","University Ave & 57th St","KA1503000071",41.799533963,-87.594660401,41.791478,-87.599861,"member"
"7DE17E0C094C4784","electric_bike","2023-01-05 13:25:42","2023-01-05 13:26:08","Lakeview Ave & Fullerton Pkwy","TA1309000019","Lakeview Ave & Fullerton Pkwy","TA1309000019",41.925597429,-87.638713121,41.925858,-87.638973,"member"
"FCD3FF0CEBF94A3D","classic_bike","2023-01-08 15:43:46","2023-01-08 15:46:16","Ravenswood Ave & Irving Park Rd","TA1307000149","Ashland Ave & Belle Plaine Ave","13249",41.95469,-87.67393,41.956057,-87.668835,"member"
"20BE071B3187C34E","electric_bike","2023-01-15 06:52:36","2023-01-15 07:02:33","California Ave & Altgeld St","15646","","",41.926689744,-87.697797537,41.96,-87.71,"member"
"2E8FCE9C10E82CA2","classic_bike","2023-01-12 22:24:12","2023-01-12 22:28:31","LaSalle Dr & Huron St","KP1705001026","Kingsbury St & Erie St","13265",41.894877,-87.632326,41.8938080562436,-87.6416972279549,"member"
"360483EC7894C2A7","classic_bike","2023-01-10 12:19:47","2023-01-10 12:25:16","LaSalle St & Jackson Blvd","TA1309000004","Franklin St & Lake St","TA1307000111",41.878166,-87.631929,41.885837,-87.6355,"member"
"A38C5AAC3484C1DC","classic_bike","2023-01-02 14:29:05","2023-01-02 14:51:13","Western Ave & Congress Pkwy","15668","Western Ave & Congress Pkwy","15668",41.87474885079,-87.6864452757,41.87474885079,-87.6864452757,"casual"
"1908852D31E3F308","docked_bike","2023-01-13 16:50:45","2023-01-13 17:09:41","Michigan Ave & Ida B Wells Dr","TA1305000010","Michigan Ave & Washington St","13001",41.876243,-87.624426,41.883984,-87.624684,"casual"
"48C5B2B5F8F0921D","electric_bike","2023-01-20 06:26:21","2023-01-20 06:38:09","Damen Ave & Cortland St","13133","Clinton St & Washington Blvd","WL-012",41.915973902,-87.677329183,41.88338,-87.64117,"member"
"15D4DBD0CF8B1748","electric_bike","2023-01-13 18:08:39","2023-01-13 18:28:03","Sheridan Rd & Lawrence Ave","TA1309000041","Winthrop Ave & Lawrence Ave","TA1308000021",41.969452381,-87.654620051,41.968812,-87.657659,"member"
"56AA914AFD5E6930","classic_bike","2023-01-13 08:26:55","2023-01-13 08:41:47","Clinton St & Washington Blvd","WL-012","McClurg Ct & Erie St","KA1503000041",41.88338,-87.64117,41.894503,-87.617854,"member"
"E5794D3A5749562F","classic_bike","2023-01-25 20:51:00","2023-01-25 21:05:02","Michigan Ave & Washington St","13001","Michigan Ave & 18th St","13150",41.8839840647265,-87.6246839761734,41.857813,-87.62455,"member"
"4424B3DD355948F3","classic_bike","2023-01-13 10:17:09","2023-01-13 10:23:02","Southport Ave & Wellington Ave","TA1307000006","Halsted St & Wrightwood Ave","TA1309000061",41.9357746176646,-87.6636001467705,41.929143,-87.649077,"member"
"753A40E688AB20A5","classic_bike","2023-01-09 16:37:01","2023-01-09 16:47:14","Larrabee St & Kingsbury St","TA1306000009","Canal St & Adams St","13011",41.897764,-87.642884,41.879255,-87.639904,"member"
"8990681FF6F3A35A","classic_bike","2023-01-15 10:01:47","2023-01-15 10:35:55","Clark St & Armitage Ave","13146","Broadway & Thorndale Ave","15575",41.918306,-87.636282,41.98974251144,-87.6601406209,"member"
"69F1B8AAF6667173","classic_bike","2023-01-17 18:00:56","2023-01-17 18:18:10","Larrabee St & Kingsbury St","TA1306000009","Wilton Ave & Diversey Pkwy","TA1306000014",41.897764,-87.642884,41.932418,-87.652705,"member"
"758FB7697EBAA599","classic_bike","2023-01-15 16:23:02","2023-01-15 16:24:43","Larrabee St & Division St","KA1504000079","Larrabee St & Oak St","KA1504000116",41.90348607004,-87.6433534936,41.90021949323,-87.6429854676,"member"
"D388A9C5DDC69055","electric_bike","2023-01-26 03:56:18","2023-01-26 04:00:32","MLK Jr Dr & 47th St","TA1308000007","Greenwood Ave & 47th St","TA1308000002",41.809788704,-87.616347194,41.809835,-87.599383,"member"
"82E2FFE384EC0AA9","electric_bike","2023-01-03 18:48:12","2023-01-03 18:58:47","","","Wells St & Elm St","KA1504000135",41.88,-87.63,41.903222,-87.634324,"member"
"CABC5307D871B375","electric_bike","2023-01-19 21:05:09","2023-01-19 21:14:50","","","","",42.01,-87.68,41.99,-87.67,"member"
"7FDB5E365DE9F44D","electric_bike","2023-01-06 00:18:29","2023-01-06 00:24:55","Clark St & Bryn Mawr Ave","KA1504000151","","",41.983552694,-87.669135571,41.97,-87.65,"member"
"867D03F6BB2CC743","classic_bike","2023-01-07 10:46:40","2023-01-07 10:57:02","Harper Ave & 59th St","KA1503000070","Lake Park Ave & 56th St","TA1309000063",41.78794281287,-87.5883151702,41.793242,-87.587782,"member"
"04E4726B8DB12B48","electric_bike","2023-01-03 09:27:16","2023-01-03 09:27:19","","","","",41.89,-87.62,41.89,-87.62,"member"
"FE20078DA01DB24D","electric_bike","2023-01-18 17:45:21","2023-01-18 17:52:57","Canal St & Adams St","13011","Franklin St & Illinois St","RN-",41.8798365,-87.640516,41.8910233102519,-87.6354798674583,"member"
"8B23ED0B8137CB75","electric_bike","2023-01-21 10:40:32","2023-01-21 10:41:34","California Ave & Winona St","443","","",41.97,-87.7,41.97,-87.7,"member"
"0414643DFD5CC5F8","electric_bike","2023-01-23 18:00:50","2023-01-23 18:15:33","","","Sheffield Ave & Kingsbury St","13154",41.92,-87.69,41.910522,-87.653106,"member"
"98CA8366965883B9","classic_bike","2023-01-04 08:20:11","2023-01-04 08:27:51","Federal St & Polk St","SL-008","Franklin St & Adams St (Temp)","TA1309000008",41.87207763285,-87.6295437729,41.8794340914001,-87.6355040073395,"member"
"97BF0C45046B99DE","electric_bike","2023-01-12 09:23:20","2023-01-12 09:27:25","Sheridan Rd & Noyes St (NU)","604","University Library (NU)","605",42.058227,-87.6774605,42.052939,-87.673447,"casual"
"F2D0B1FA8DEFE937","electric_bike","2023-01-17 15:01:15","2023-01-17 15:03:51","Wacker Dr & Washington St","KA1503000072","Clinton St & Lake St","13021",41.883360028,-87.637432337,41.885637,-87.641823,"member"
"88856B58A6A62FD5","electric_bike","2023-01-15 10:44:39","2023-01-15 10:50:59","","","Spaulding Ave & Armitage Ave","15650",41.92,-87.69,41.9171080347893,-87.7102209627628,"member"
"B0C7A9834AF15D8C","classic_bike","2023-01-17 07:59:32","2023-01-17 08:09:39","Canal St & Madison St","13341","Racine Ave & Congress Pkwy","TA1306000025",41.882409,-87.639767,41.87464,-87.65703,"member"
"86D103B0376028A0","classic_bike","2023-01-18 18:05:01","2023-01-18 18:29:23","Michigan Ave & Washington St","13001","Wells St & Concord Ln","TA1308000050",41.8839840647265,-87.6246839761734,41.912133,-87.634656,"member"
"F62B67A157CE9185","electric_bike","2023-01-07 21:55:48","2023-01-07 21:57:10","","","","",41.88,-87.73,41.88,-87.73,"member"
"0868FF75FED00AAE","electric_bike","2023-01-09 16:48:59","2023-01-09 16:55:15","Orleans St & Merchandise Mart Plaza","TA1305000022","Aberdeen St & Randolph St","18062",41.887818694,-87.636900425,41.884114,-87.654264,"member"
"656F04A4F8F2A2A7","classic_bike","2023-01-14 15:24:39","2023-01-14 15:37:24","Franklin St & Chicago Ave","13017","Ashland Ave & Blackhawk St","13224",41.8967469730938,-87.6356676220894,41.907066,-87.667252,"member"
"3516482A546095AD","classic_bike","2023-01-21 18:13:52","2023-01-21 18:22:10","DuSable Lake Shore Dr & North Blvd","LF-005","Wells St & Evergreen Ave","TA1308000049",41.911722,-87.626804,41.906724,-87.63483,"member"
"77059E73214B7250","electric_bike","2023-01-02 16:54:39","2023-01-02 16:58:35","Michigan Ave & 14th St","TA1307000124","","",41.864219904,-87.62368989,41.85,-87.62,"casual"
"86F2FFDF73DB9851","classic_bike","2023-01-26 22:11:19","2023-01-26 22:12:48","Orleans St & Merchandise Mart Plaza","TA1305000022","Orleans St & Hubbard St","636",41.888243,-87.63639,41.890028,-87.636618,"member"
"E0373177724070CF","classic_bike","2023-01-09 22:43:53","2023-01-09 22:48:54","State St & Chicago Ave","21544","Clark St & Elm St","TA1307000039",41.8966172004075,-87.628578543663,41.902973,-87.63128,"member"
"E147BB3AA768424E","electric_bike","2023-01-30 19:34:43","2023-01-30 19:39:45","Kingsbury St & Kinzie St","KA1503000043","Larrabee St & Division St","KA1504000079",41.88924396,-87.638584733,41.90348607004,-87.6433534936,"casual"
"15A4CC19BFA5EAE6","classic_bike","2023-01-15 12:48:29","2023-01-15 12:48:47","Wilton Ave & Diversey Pkwy*","chargingstx0","Wilton Ave & Diversey Pkwy*","chargingstx0",41.932418,-87.652705,41.932418,-87.652705,"member"
"AF40BA9445C046B1","electric_bike","2023-01-26 07:00:00","2023-01-26 07:06:31","","","","",41.87,-87.65,41.86,-87.65,"member"
"15BDC36243E93A58","electric_bike","2023-01-31 18:17:31","2023-01-31 18:20:37","","","","",42.02,-87.68,42.02,-87.68,"member"
"DB8425E538C9D5C6","electric_bike","2023-01-31 16:10:52","2023-01-31 16:14:13","Clinton St & Washington Blvd","WL-012","Green St & Madison St","TA1307000120",41.883369327,-87.64131093,41.8818593280382,-87.6492637395859,"casual"
"BC8A929562A7111A","classic_bike","2023-01-24 17:06:36","2023-01-24 17:11:06","Canal St & Monroe St","13056","Orleans St & Merchandise Mart Plaza","TA1305000022",41.88169,-87.63953,41.888243,-87.63639,"member"
"357590043D886F9C","electric_bike","2023-01-31 19:15:18","2023-01-31 19:19:06","Sheffield Ave & Kingsbury St","13154","Sedgwick St & North Ave","TA1307000038",41.91057992,-87.653204203,41.911386,-87.638677,"member"
"2DA08A3FBF123ADD","classic_bike","2023-01-22 13:54:14","2023-01-22 14:19:11","Walsh Park","18067","Central Park Ave & Bloomingdale Ave","18017",41.91461,-87.667968,41.914166,-87.716755,"member"
"3A3DBA3B04FBEBF0","classic_bike","2023-01-16 20:38:24","2023-01-16 21:55:44","Mies van der Rohe Way & Chestnut St","15529","Mies van der Rohe Way & Chestnut St","15529",41.8985866514,-87.6219152258,41.8985866514,-87.6219152258,"casual"
"9CE349380EDE04F0","electric_bike","2023-01-18 13:12:03","2023-01-18 13:38:27","Halsted St & Roosevelt Rd","TA1305000017","","",41.867327571,-87.648674965,41.83,-87.63,"member"
"47ED394B6AE29110","electric_bike","2023-01-14 22:26:17","2023-01-14 23:53:44","","","","",41.89,-87.63,41.89,-87.63,"member"
"0A9A5E274443BB1F","classic_bike","2023-01-21 11:15:27","2023-01-21 11:32:32","Damen Ave & Cortland St","13133","California Ave & Cortez St","17660",41.915983,-87.677335,41.900363,-87.696704,"member"
"033AC1C168C4BD4A","classic_bike","2023-01-18 17:36:16","2023-01-18 17:54:16","McClurg Ct & Erie St","KA1503000041","Green St & Madison St","TA1307000120",41.894503,-87.617854,41.8818593280382,-87.6492637395859,"member"
"AF295E7BC6DE3141","classic_bike","2023-01-24 17:13:22","2023-01-24 17:19:29","Leavitt St & Division St","658","Ashland Ave & Augusta Blvd","13248",41.902997,-87.683825,41.899643,-87.6677,"member"
"4113002D7A745783","electric_bike","2023-01-05 15:11:42","2023-01-05 15:16:26","Dearborn St & Van Buren St","624","Canal St & Monroe St","13056",41.87619102,-87.629669785,41.88169,-87.63953,"member"
"475FCBEEFF04857C","classic_bike","2023-01-24 05:46:04","2023-01-24 05:48:02","Ogden Ave & Congress Pkwy","13081","Paulina St & Flournoy St","KA1504000104",41.87501,-87.67328,41.8730610878979,-87.6691348850727,"member"
"D97A5D061DF50666","classic_bike","2023-01-19 13:59:00","2023-01-19 14:05:39","Racine Ave & Congress Pkwy","TA1306000025","Hermitage Ave & Polk St","13080",41.87464,-87.65703,41.871514,-87.669886,"member"
"666FF73D443C02F2","electric_bike","2023-01-12 08:48:27","2023-01-12 08:54:42","","","Kenosha & Wellington","361",41.94,-87.73,41.93,-87.73,"member"
"3403C70C652E640D","classic_bike","2023-01-25 08:38:03","2023-01-25 08:39:50","Larrabee St & Webster Ave","13193","Larrabee St & Armitage Ave","TA1309000006",41.921822,-87.64414,41.918084,-87.643749,"member"
"B637733E737BA9FE","electric_bike","2023-01-16 13:23:35","2023-01-16 13:38:41","Wells St & Elm St","KA1504000135","","",41.903107524,-87.634699702,41.9,-87.63,"member"
"E0DCCA731447093E","electric_bike","2023-01-24 16:08:12","2023-01-24 16:28:44","Damen Ave & Wabansia Ave","20.0","","",41.91,-87.68,41.92,-87.72,"member"
"9E0A40107507F347","electric_bike","2023-01-27 02:21:50","2023-01-27 02:29:02","","","","",41.78,-87.6,41.79,-87.6,"member"
"8ADA1D285CED2004","classic_bike","2023-01-24 11:17:00","2023-01-24 11:24:25","California Ave & Cortez St","17660","Damen Ave & Division St","13136",41.900363,-87.696704,41.903266,-87.678435,"member"
"7F014BA4C8C54C49","electric_bike","2023-01-08 13:41:08","2023-01-08 13:47:51","Field Museum","13029","Buckingham Fountain","15541",41.865250707,-87.618212342,41.876423,-87.620339,"casual"
"77FFA4458D5A2C9A","classic_bike","2023-01-21 08:19:33","2023-01-21 08:23:22","Larrabee St & Kingsbury St","TA1306000009","Kingsbury St & Kinzie St","KA1503000043",41.897764,-87.642884,41.88917683258,-87.6385057718,"member"
"59A8FBE47997563F","classic_bike","2023-01-05 16:46:46","2023-01-05 16:57:01","Wabash Ave & Wacker Pl","TA1307000131","Canal St & Adams St","13011",41.886875,-87.62603,41.879255,-87.639904,"member"
